"EIN","NAME","STATE","NTEE1","NTEECC","ADDRESS","CITY","ZIP","zip5","FIPS","MSA_NECH","PMSA","TAXPER","outnccs","OUTREAS","Filer","ZFILER","SUBSECCD","ntmaj5","ntmaj10","ntmaj12","NTEEconf","MAJGRPB","ACTIV1","ACTIV2","ACTIV3","ASCD","INCCD","INCOME","F990REV","ASSETS","cFiler","czFiler","cTaxPer","cTotRev","cAssets","cFinSrc","RULEDATE","FNDNCD","FRCD","AFCD","CONTACT","SEC_NAME","GEN","EOSTATUS","LEVEL1","LEVEL2","level3","level4","CLASSCD","DEDUCTCD","NTEEIRS","NAICS","ORGCD","ACCPER","lon","lat","STATEFP10","COUNTYFP10","TRACTCE10","GEOID10","NAME10","NAMELSAD10","MTFCC10","FUNCSTAT10","ALAND10","AWATER10","INTPTLAT10","INTPTLON10","YEAR"
10587946,"MIGHTYMEN MINISTRIES INC","NY","L","L25","108 SUMMIT AVE","SYRACUSE","13207-1335",13207,36067,8160,".",201412,"IN",NA,"Y","Y",3,"HU","HU","HU","B","L",0,0,0,0,0,0,0,0,"Y","Y","201412",".",".","submaster990n",200206,15,2,3,"RENA HOLMAN","",0,1,"PC","O","HS","L",1000,1,"L25","624229",1,12,-76.166735,43.032312,"36","067","005000","36067005000","50","Census Tract 50","G5020","S",1149255,45948,"+43.0272963","-076.1689815",2014
10758900,"SYRACUSE SHAKESPEARE FESTIVAL CORP","NY","A","A65","350 WEST FAYETTE ST ROOM 001","SYRACUSE","13202-1202",13202,36067,8160,".",201412,"IN",NA,"Y","Y",3,"AR","AR","AR","B","A",0,0,0,0,0,0,0,0,"Y","Y","201412",".",".","submaster990n",200303,15,0,3,"R BELL","",0,1,"PC","O","AR","A",2000,1,"A65","711110",1,12,-76.1577135,43.0490353,"36","067","003000","36067003000","30","Census Tract 30","G5020","S",804722,0,"+43.0461462","-076.1632030",2014
16177361,"HERBERT S AND ELEANORE L HOWARD CHARITABLE FOUNDATION","NY","T","T20","1 LINCOLN CTR","SYRACUSE","13202-1324",13202,36067,8160,".",201512,"IN",NA,"Y","N",3,"OT","PU","PU","B","T",0,0,0,6,4,198352,0,2336824,"Y","N","201312","120157","2498777","core2013pf",200207,4,0,3,"BOND SCHOENECK & KING LLP","MACKIN JAMES E TTEE",0,1,"PF","S","ZC","T",1000,1,"T20","813211",2,12,-76.1531032,43.0489662,"36","067","003200","36067003200","32","Census Tract 32","G5020","S",1257528,0,"+43.0480190","-076.1502417",2015
20590821,"ARC OF ONONDAGA FOUNDATION","NY","P","P82","600 S WILBUR AVE","SYRACUSE","13204-2730",13204,36067,8160,".",201412,"IN",NA,"Y","N",3,"HU","HU","HU","A","P",0,0,0,6,4,453072,324519,2319125,"Y","N","201412","324519","2319125","bmf1608c3",200206,15,1,3,"PETER CARMEN","",0,1,"PC","O","HS","P",1000,1,"P82","624120",1,12,-76.1766048,43.0440289,"36","067","002901","36067002901","29.01","Census Tract 29.01","G5020","S",1870601,0,"+43.0441999","-076.1820651",2014
20651844,"SYRACUSE CITY SCHOOL DISTRICT EDUCATIONAL FOUNDATION","NY","B","B12","725 HARRISON STREET Q157","SYRACUSE","13210-2395",13210,36067,8160,".",201506,"IN",NA,"Y","N",3,"ED","ED","ED","A","B",0,0,0,4,4,142088,106491,125400,"Y","N","201506","106491","125400","bmf1608c3",200301,17,1,3,"JAN QUINTZAU","",0,1,"PC","S","ZB","B",1000,1,"B112","813219",1,6,-76.1396909,43.0449343,"36","067","004302","36067004302","43.02","Census Tract 43.02","G5020","S",1195046,0,"+43.0400403","-076.1346433",2015
20658895,"TRESNESS FAMILY FOUNDATION CORPORATION","NY","T","T22","PO BOX 6729","SYRACUSE","13217-6729",13217,36067,8160,".",201512,"IN",NA,"Y","N",3,"OT","PU","PU","B","T",0,0,0,4,2,20714,0,144315,"Y","N","201312","4281","150943","core2013pf",200309,4,0,3,"ANDREW TRESNESS","",0,1,"PF","S","ZC","T",1000,1,"T22","813211",1,12,-76.1216514,43.0512498,"36","067","003500","36067003500","35","Census Tract 35","G5020","S",1137202,0,"+43.0479840","-076.1200136",2015
30442302,"SOUTHSIDE CHARTER SCHOOL","NY","B","B29","2200 ONONDAGA CREEK BLVD","SYRACUSE","13207-2361",13207,36067,8160,".",201506,"IN",NA,"Y","N",3,"ED","ED","ED","A","B",0,0,0,5,7,9115373,9115373,540630,"Y","N","201506","9115373","540630","bmf1608c3",200302,11,1,3,"STEPHEN M CONLEY","",0,1,"PC","O","ED","B",2000,1,"B20","611110",1,6,-76.1544679,43.0121848,"36","067","005700","36067005700","57","Census Tract 57","G5020","S",1356596,0,"+43.0152012","-076.1636184",2015
30582179,"FAMILY TAPESTRY INC","NY","P","P20","301 HILLSIDE ST","SYRACUSE","13208-2341",13208,36067,8160,".",201512,"IN",NA,"Y","Y",3,"HU","HU","HU","B","P",0,0,0,0,0,0,0,0,"Y","Y","201412",".","0","990_file_list",201108,15,2,3,"MARY JANE O CONNER","",0,1,"PC","O","HS","P",1000,1,"P20","624000",1,12,-76.1422259,43.077723,"36","067","000400","36067000400","4","Census Tract 4","G5020","S",1524699,0,"+43.0762560","-076.1378045",2015
30611632,"XI COMMUNITY EMPOWERMENT ADVOCATES INC","NY","B","B83","PO BOX 44","SYRACUSE","13207-0044",13207,36067,8160,".",201506,"IN",NA,"Y","Y",3,"ED","ED","ED","A","B",0,0,0,0,0,0,0,0,"Y","Y","201506",".",".","submaster990n",201003,16,2,3,"DELL FORD JORDAN","",0,1,"PC","O","ED","B",1000,1,"B82","813410",1,6,-76.1638823,43.0178864,"36","067","005700","36067005700","57","Census Tract 57","G5020","S",1356596,0,"+43.0152012","-076.1636184",2015
43739991,"SYRACUSE ACADEMY OF SCIENCE CHARTER SCHOOL","NY","B","B29","1001 PARK AVE","SYRACUSE","13204-2125",13204,36067,8160,".",201506,"IN",NA,"Y","N",3,"ED","ED","ED","A","B",0,0,0,7,8,11258864,11220571,6400199,"Y","N","201506","11220571","6400199","bmf1608c3",200306,11,1,3,"EHAT ERCANLI","",0,1,"PC","O","ED","B",2000,1,"","611110",1,6,-76.180247,43.05175,"36","067","002101","36067002101","21.01","Census Tract 21.01","G5020","S",1578293,0,"+43.0526383","-076.1712469",2015
43743001,"WHOLE ME INC","NY","P","P87","1010 JAMES STREET","SYRACUSE","13203-2770",13203,36067,8160,".",201506,"IN",NA,"Y","N",3,"HU","HU","HU","B","P",0,0,0,4,5,902582,902582,366703,"Y","N","201506","902582","366703","bmf1608c3",200307,15,1,3,"CHRISTINE M KOVAR","",0,1,"PC","O","HS","P",1000,1,"P87","624120",1,6,-76.1334533,43.0591953,"36","067","001600","36067001600","16","Census Tract 16","G5020","S",559576,0,"+43.0571312","-076.1378340",2015
61475666,"CARPENTER HOUSING DEVELOPMENT FUND CO INC","NY","L","L21","990 JAMES STREET","SYRACUSE","13203-2879",13203,36067,8160,".",201509,"IN",NA,"Y","N",3,"HU","HU","HU","B","L",995,380,0,6,4,273117,273117,1798490,"Y","N","201509","273117","1798490","bmf1608c3",199704,16,1,3,"CHRISTOPHER COMMUNITY INC","",0,1,"PC","O","HS","L",1000,1,"L20","624229",1,9,-76.1345347,43.0586946,"36","067","001600","36067001600","16","Census Tract 16","G5020","S",559576,0,"+43.0571312","-076.1378340",2015
61688749,"CENTRAL NEW YORK CAT COALITION INCORPORATED","NY","D","D20","PO BOX 6182","SYRACUSE","13217-6182",13217,36067,8160,".",201412,"IN",NA,"Y","N",3,"OT","EN","EN","B","D",0,0,0,3,4,172256,171456,67852,"Y","N","201412","171456","67852","bmf1608c3",200307,16,1,3,"CHRISTINE HOWARD","",0,1,"PC","O","EN","D",1000,1,"D20","813312",1,12,-76.1216514,43.0512498,"36","067","003500","36067003500","35","Census Tract 35","G5020","S",1137202,0,"+43.0479840","-076.1200136",2014
112435519,"NEW YORK WATER ENVIRONMENT ASSOCIATION INC","NY","C","C02","525 PLUM ST STE 102","SYRACUSE","13204-1551",13204,36067,8160,".",201508,"IN",NA,"Y","N",3,"OT","EN","EN","A","C",199,0,0,6,6,1768402,1312425,2137775,"Y","N","201508","1312425","2137775","bmf1608c3",197808,16,1,3,"","",0,1,"PC","O","EN","C",1000,1,"C022","541618",1,8,-76.1586625,43.0564091,"36","067","000100","36067000100","1","Census Tract 1","G5020","S",4842958,1284980,"+43.0691355","-076.1730170",2015
112552891,"PETER N WHITCHER TR","NY","T","T22","507 PLUM ST STE 300","SYRACUSE","13204-5431",13204,36067,8160,".",201412,"IN",NA,"Y","N",3,"OT","PU","PU","A","T",40,0,0,4,3,87621,0,183051,"Y","N","201312","20710","172026","core2013pf",198105,4,0,3,"SCOLARO","",0,1,"PF","S","ZC","T",2000,1,"","813211",2,12,-76.1606229,43.0561928,"36","067","000100","36067000100","1","Census Tract 1","G5020","S",4842958,1284980,"+43.0691355","-076.1730170",2014
112635913,"NEW YORK ASSOCIATION FOR CONTINUING AND COMMUNITY EDUCATION INC","NY","B","B03","104 OVERLOOK DR","SYRACUSE","13207-1017",13207,36067,8160,".",201506,"IN",NA,"Y","N",3,"ED","ED","ED","A","B",998,0,0,3,4,105298,105298,59454,"Y","N","201506","105298","59454","bmf1608c3",198409,16,1,3,"BONNIE CODDINGTON TREASURER","",0,1,"PC","O","ED","B",1000,1,"","813920",1,6,-76.1865552,43.0308966,"36","067","004800","36067004800","48","Census Tract 48","G5020","S",1206079,0,"+43.0279451","-076.1920648",2015
113676963,"FOCUSING OUR RESOURCES FOR COMMUNITY ENLIGHTENMENT INC","NY","S","S20","PO BOX 317","SYRACUSE","13205-0317",13205,36067,8160,".",201512,"IN",NA,"Y","Y",3,"OT","PU","PU","A","S",0,0,0,0,0,0,0,0,"Y","Y","201512",".",".","submaster990n",200710,15,2,3,"KEITH MUHAMMAD","",0,1,"PC","O","PB","S",1000,1,"S20","813410",1,12,-76.1377935,42.9979838,"36","067","006103","36067006103","61.03","Census Tract 61.03","G5020","S",1951225,0,"+42.9926718","-076.1415797",2015
113712959,"SYRACUSE TEACHERS TR","NY","B","B03","731 JAMES STREET","SYRACUSE","13203-2039",13203,36067,8160,".",201506,"IN",NA,"Y","N",3,"ED","ED","ED","B","B",0,0,0,3,3,25499,25499,83542,"Y","N","201506","25499","83542","bmf1608c3",200506,15,2,3,"KATE MCKENNA","",0,1,"PC","O","ED","B",2000,1,"B03","813920",1,6,-76.1423698,43.0558868,"36","067","001600","36067001600","16","Census Tract 16","G5020","S",559576,0,"+43.0571312","-076.1378340",2015
131624114,"NEAR EAST FOUNDATION","NY","Q","Q30","230 EUCLID AVE","SYRACUSE","13210-2900",13210,36067,8160,".",201506,"IN",NA,"Y","N",3,"OT","IN","IN","B","Q",0,0,0,7,8,11096021,8018688,6033294,"Y","N","201506","8018688","6033294","bmf1608c3",195209,15,1,3,"","",0,1,"PC","O","IN","Q",1000,1,"Q300","813311",5,6,-76.1287809,43.0363283,"36","067","004302","36067004302","43.02","Census Tract 43.02","G5020","S",1195046,0,"+43.0400403","-076.1346433",2015
133020607,"PUNTO DE CONTACTO","NY","A","A31","350 W FAYETTE ST NO 05","SYRACUSE","13202-1202",13202,36067,8160,".",201506,"IN",NA,"Y","Y",3,"AR","AR","AR","C","A",59,0,0,0,0,0,0,0,"Y","Y","201506",".",".","submaster990n",198106,16,2,3,"TERA PANIAGUA","POINT OF CONTACT INC",0,1,"PC","O","AR","A",1200,1,"","512110",1,6,-76.1577135,43.0490353,"36","067","003000","36067003000","30","Census Tract 30","G5020","S",804722,0,"+43.0461462","-076.1632030",2015
133378833,"NYSERNETORG INC","NY","B","B02","100 S SALINA ST STE 300","SYRACUSE","13202-1815",13202,36067,8160,".",201412,"IN",NA,"Y","N",3,"ED","ED","ED","A","B",59,0,0,8,8,13351593,10714556,19870507,"Y","N","201412","10714556","19870507","bmf1608c3",198612,15,1,3,"","",0,1,"PC","O","ED","B",2000,1,"B43B","541618",1,12,-76.151766,43.051099,"36","067","003200","36067003200","32","Census Tract 32","G5020","S",1257528,0,"+43.0480190","-076.1502417",2014
134266189,"NORTHEAST AGRICULTURAL EDUCATION FOUNDATION INC","NY","T","T20","220 SOUTH WARREN STREET-9TH FLOOR","SYRACUSE","13202-1676",13202,36067,8160,".",201512,"IN",NA,"Y","N",3,"OT","PU","PU","B","T",0,0,0,6,4,190749,0,2343549,"Y","N","201312","101426","2435098","core2013pf",200311,4,0,3,"MARY HABIB","",0,1,"PF","S","ZC","T",1000,1,"T20","813211",1,12,-76.1511783,43.0489638,"36","067","003200","36067003200","32","Census Tract 32","G5020","S",1257528,0,"+43.0480190","-076.1502417",2015
134334265,"HEMOCHROMATOSIS FOUNDATION OF CENTRAL NEW YORK","NY","G","G70","821 E BRIGHTON AVE APT 1215","SYRACUSE","13205-2626",13205,36067,8160,".",201412,"IN",NA,"Y","Y",3,"HE","HE","HE","A","G",0,0,0,0,0,0,0,0,"Y","Y","201412",".",".","submaster990n",201209,15,2,3,"MARK WHITE","",0,1,"PC","O","HE","G",2000,1,"G80","813212",5,12,-76.1294738,43.0054362,"36","067","006102","36067006102","61.02","Census Tract 61.02","G5020","S",1738154,0,"+42.9984281","-076.1304280",2014
134357536,"SOUTHSIDE COMMUNITY COALITION","NY","S","S21","2331 S SALINA ST","SYRACUSE","13205-1517",13205,36067,8160,".",201506,"IN",NA,"Y","N",3,"OT","PU","PU","A","S",0,0,0,1,3,26635,26635,665,"Y","N","201506","26635","665","bmf1608c3",200712,15,2,3,"SOUTHSIDE COMMUNITY COALITION","",0,1,"PC","O","PB","S",1000,1,"S20","813410",1,6,-76.1443199,43.024173,"36","067","005400","36067005400","54","Census Tract 54","G5020","S",747725,0,"+43.0245237","-076.1455633",2015
136112704,"JOHN BEN SNOW FOUNDATION INC","NY","T","T20","50 PRESIDENTIAL PLZ STE 106","SYRACUSE","13202-2279",13202,36067,8160,".",201512,"IN",NA,"Y","N",3,"OT","PU","PU","C","T",1,602,900,7,6,2728018,0,7726941,"Y","N","201312","718744","8627634","core2013pf",195204,4,0,3,"","",0,1,"PF","S","ZC","T",1000,1,"","813211",1,12,-76.1442754,43.0464505,"36","067","003200","36067003200","32","Census Tract 32","G5020","S",1257528,0,"+43.0480190","-076.1502417",2015
136216921,"UNITED STATES INSTITUTE FOR THEATRE TECHNOLOGY INC","NY","A","A03","315 S CROUSE AVE STE 200","SYRACUSE","13210-1844",13210,36067,8160,".",201506,"IN",NA,"Y","N",3,"AR","AR","AR","B","A",59,0,0,6,6,2670172,2669632,4021179,"Y","N","201506","2669632","4021179","bmf1608c3",196703,16,1,3,"","",0,1,"PC","O","AR","A",2000,1,"A030","813920",1,6,-76.1361609,43.0478349,"36","067","003400","36067003400","34","Census Tract 34","G5020","S",862442,0,"+43.0486573","-076.1342736",2015
141745839,"GREATER SYRACUSE TENANTS NETWORK","NY","L","L50","PO BOX 6908","SYRACUSE","13217-6908",13217,36067,8160,".",201506,"IN",NA,"Y","N",3,"HU","HU","HU","B","L",381,0,0,2,3,78681,78681,12013,"Y","N","201506","78681","12013","bmf1608c3",199812,15,1,3,"SHARON SHERMAN","",0,1,"PC","O","HS","L",1000,1,"L80Z","813990",1,6,-76.1216514,43.0512498,"36","067","003500","36067003500","35","Census Tract 35","G5020","S",1137202,0,"+43.0479840","-076.1200136",2015
141795123,"GRROWLS-NY INC","NY","D","D20","PO BOX 6634","SYRACUSE","13217-6634",13217,36067,8160,".",201412,"IN",NA,"Y","N",3,"OT","EN","EN","A","D",0,0,0,4,2,16123,9758,191002,"Y","N","201412","9758","191002","bmf1608c3",199702,15,2,3,"LINDA K BILLS","",0,1,"PC","O","EN","D",3000,1,"D20","813312",1,12,-76.1216514,43.0512498,"36","067","003500","36067003500","35","Census Tract 35","G5020","S",1137202,0,"+43.0479840","-076.1200136",2014
141869411,"JUNETEETH INC","NY","A","A23","PO BOX 973","SYRACUSE","13201-0973",13201,36067,8160,".",201512,"IN",NA,"Y","N",3,"AR","AR","AR","B","A",0,0,0,3,3,82294,82294,95749,"Y","N","201512","82294","95749","bmf1608c3",200504,16,1,3,"KITTY R RICE","",0,1,"PC","O","AR","A",2000,1,"A23","710000",1,12,-76.1523256,43.045851,"36","067","003200","36067003200","32","Census Tract 32","G5020","S",1257528,0,"+43.0480190","-076.1502417",2015
141908774,"TIPPERARY HILL NEIGHBORHOOD ASSOCIATION INC","NY","S","S22","603 TOMPKINS ST","SYRACUSE","13204-1839",13204,36067,8160,".",201412,"IN",NA,"Y","N",3,"OT","PU","PU","A","S",0,0,0,3,4,166685,119537,69680,"Y","N","201412","119537","69680","bmf1608c3",200505,15,1,3,"JOHN STRODEL","",0,1,"PC","O","PB","S",2000,1,"S20","813410",1,12,-76.187821,43.0453789,"36","067","002901","36067002901","29.01","Census Tract 29.01","G5020","S",1870601,0,"+43.0441999","-076.1820651",2014
146021395,"NEW YORK STATE 4-H FOUNDATION INC","NY","O","O52","220 HERALD PLACE","SYRACUSE","13202-5002",13202,36067,8160,".",201412,"IN",NA,"Y","N",3,"HU","HU","HU","B","O",59,520,349,6,4,321190,312516,1076575,"Y","N","201412","312516","1076575","bmf1608c3",195209,15,1,3,"","",0,1,"PC","O","HS","O",2000,1,"","813410",1,12,-76.1544398,43.0536313,"36","067","003200","36067003200","32","Census Tract 32","G5020","S",1257528,0,"+43.0480190","-076.1502417",2014
150527253,"FRANK H HISCOCK LEGAL AID SOCIETY","NY","I","I80","351 S WARREN STREET","SYRACUSE","13202-2074",13202,36067,8160,".",201512,"IN",NA,"Y","N",3,"HU","HU","HU","B","I",999,0,0,6,6,4494992,4483666,1667036,"Y","N","201512","4483666","1667036","bmf1608c3",195101,15,1,3,"","",0,1,"PC","O","HS","I",1000,1,"I80Z","541199",1,12,-76.1504688,43.0474001,"36","067","003200","36067003200","32","Census Tract 32","G5020","S",1257528,0,"+43.0480190","-076.1502417",2015
150532081,"SYRACUSE UNIVERSITY","NY","B","B43","PHYSICAL PLANT285 AINSLEY DRIVE","SYRACUSE","13244-0001",13244,36067,8160,".",201506,"IN",NA,"Y","N",3,"ED","ED","BH","A","BH",36,40,0,9,9,1617022203,1269059737,2668632803,"Y","N","201506","1269059737","2668632803","bmf1608c3",193810,11,1,3,"JEAN B GALLIPEAU","JEAN B GALLIPEAU",0,1,"PC","O","ED","B",2000,1,"B430","611310",1,6,-76.1289334,43.0126141,"36","067","005500","36067005500","55","Census Tract 55","G5020","S",2728565,0,"+43.0210674","-076.1337849",2015
150532085,"CATHOLIC CHARITIES OF THE ROMAN CATHOLIC DIOCESE OF SYRACUSE NY","NY","P","P20","1654 W ONONDAGA ST","SYRACUSE","13204-3310",13204,36067,8160,".",201512,"IN",NA,"Y","N",3,"HU","HU","HU","A","P",150,120,0,8,9,56445612,55830264,35812437,"Y","N","201512","55830264","35812437","bmf1608c3",194603,16,1,9,"","",928,1,"PC","O","HS","P",1700,1,"P20Z","624000",5,12,-76.1816745,43.0340868,"36","067","003800","36067003800","38","Census Tract 38","G5020","S",772366,0,"+43.0361519","-076.1796494",2015
150532146,"RESCUE MISSION ALLIANCE OF SYRACUSE N Y","NY","P","P20","155 GIFFORD ST","SYRACUSE","13202-2308",13202,36067,8160,".",201509,"IN",NA,"Y","N",3,"HU","HU","HU","A","P",29,0,0,8,8,23493877,19554523,29707095,"Y","N","201509","19554523","29707095","bmf1608c3",194809,15,1,3,"JUDY T PROSSER CFO","",0,1,"PC","O","HS","P",1000,1,"P200","624000",1,9,-76.1556847,43.043295,"36","067","004000","36067004000","40","Census Tract 40","G5020","S",501636,0,"+43.0415797","-076.1623869",2015
150532198,"HUNTINGTON FAMILY CENTERS INC","NY","P","P40","405 GIFFORD ST","SYRACUSE","13204-3203",13204,36067,8160,".",201512,"IN",NA,"Y","N",3,"HU","HU","HU","A","P",59,328,324,6,6,1814080,1805820,1920656,"Y","N","201512","1805820","1920656","bmf1608c3",194911,15,1,3,"","",0,1,"PC","O","HS","P",1000,1,"P400","624100",1,12,-76.1610045,43.0430524,"36","067","004000","36067004000","40","Census Tract 40","G5020","S",501636,0,"+43.0415797","-076.1623869",2015
150532218,"ONONDAGA COUNCIL ON ALCOHOLISM ADDICITION INC","NY","F","F22","906 SPENCER STREET 1 FLR","SYRACUSE","13204-1168",13204,36067,8160,".",201412,"IN",NA,"Y","N",3,"HE","HE","HE","B","F",573,569,0,5,6,1271221,1265175,880690,"Y","N","201412","1265175","880690","bmf1608c3",195003,15,1,3,"","",0,1,"PC","O","HE","F",1000,1,"F22Z","621420",1,12,-76.173984,43.0576875,"36","067","000100","36067000100","1","Census Tract 1","G5020","S",4842958,1284980,"+43.0691355","-076.1730170",2014
150532240,"BOYS & GIRLS CLUB OF SYRACUSE","NY","O","O23","2100 E FAYETTE ST","SYRACUSE","13224-1017",13224,36067,8160,".",201512,"IN",NA,"Y","N",3,"HU","HU","HU","B","O",328,349,0,6,6,1328614,1300850,2379256,"Y","N","201512","1300850","2379256","bmf1608c3",193805,15,1,3,"","",0,1,"PC","O","HS","O",1000,1,"","624110",1,12,-76.1133047,43.0477842,"36","067","003601","36067003601","36.01","Census Tract 36.01","G5020","S",1107236,0,"+43.0509535","-076.1092805",2015
150532247,"ACCESSCNY INC","NY","G","G20","1603 COURT ST","SYRACUSE","13208-1834",13208,36067,8160,".",201412,"IN",NA,"Y","N",3,"HE","HE","HE","A","G",161,180,154,8,8,19442528,19400971,12456128,"Y","N","201412","19400971","12456128","bmf1608c3",195106,15,1,3,"","ENABLE",0,1,"PC","O","HE","G",1000,1,"G23Z","813212",1,12,-76.1461071,43.0793693,"36","067","000300","36067000300","3","Census Tract 3","G5020","S",574912,0,"+43.0812047","-076.1483599",2014
150532254,"ST JOSEPHS HOSPITAL HEALTH CENTER","NY","E","E22","301 PROSPECT AVE","SYRACUSE","13203-1807",13203,36067,8160,".",201412,"IN",NA,"Y","N",3,"HE","HE","EH","A","EH",602,0,0,9,9,609982025,603591924,648957477,"Y","N","201412","603591924","648957477","bmf1608c3",197107,12,1,3,"","",0,1,"PC","O","HE","E",1200,1,"E220","622110",1,12,-76.1498088,43.055666,"36","067","002300","36067002300","23","Census Tract 23","G5020","S",493688,0,"+43.0558933","-076.1479862",2014
150532277,"YOUNG WOMENS CHRISTIAN ASSOCIATION OF SYRACUSE & ONONDAGA COUNTY INC","NY","P","P27","401 DOUGLAS ST","SYRACUSE","13203-1616",13203,36067,8160,".",201412,"IN",NA,"Y","N",3,"HU","HU","HU","B","P",324,349,325,6,6,1263564,1156458,1310429,"Y","N","201412","1156458","1310429","bmf1608c3",194212,16,1,3,"","",0,1,"PC","O","HS","P",2700,1,"","624100",1,12,-76.1387868,43.0607329,"36","067","001500","36067001500","15","Census Tract 15","G5020","S",511990,0,"+43.0612554","-076.1400992",2014
150532278,"YMCA OF GREATER SYRACUSE","NY","P","P27","340 MONTGOMERY ST","SYRACUSE","13202-2015",13202,36067,8160,".",201512,"IN",NA,"Y","N",3,"HU","HU","HU","B","P",324,0,0,8,8,19526735,19105685,44449401,"Y","N","201512","19105685","44449401","bmf1608c3",197109,16,1,3,"","",0,1,"PC","O","HS","P",2700,1,"P27Z","624100",1,12,-76.1498357,43.0476027,"36","067","003200","36067003200","32","Census Tract 32","G5020","S",1257528,0,"+43.0480190","-076.1502417",2015
150533554,"ONONDAGA HISTORICAL ASSOCIATION","NY","A","A80","321 MONTGOMERY ST","SYRACUSE","13202-2009",13202,36067,8160,".",201412,"IN",NA,"Y","N",3,"AR","AR","AR","A","A",59,62,61,6,6,2964886,1079694,3957738,"Y","N","201412","1079694","3957738","bmf1608c3",194301,15,1,3,"","",0,1,"PC","O","AR","A",2000,1,"A800","712120",1,12,-76.1489702,43.04789,"36","067","003200","36067003200","32","Census Tract 32","G5020","S",1257528,0,"+43.0480190","-076.1502417",2014
150533563,"DUNBAR ASSOCIATION INC","NY","P","P20","1453 S STATE ST","SYRACUSE","13205-1137",13205,36067,8160,".",201412,"IN",NA,"Y","N",3,"HU","HU","HU","A","P",328,59,0,5,4,107830,103504,783573,"Y","N","201412","103504","783573","bmf1608c3",195701,15,1,3,"","",0,1,"PC","O","HS","P",1000,1,"P200","624000",1,12,-76.1462554,43.0319777,"36","067","005300","36067005300","53","Census Tract 53","G5020","S",695620,0,"+43.0317144","-076.1476356",2014
150536614,"VISITING NURSE ASSOCIATION OF CENTRAL NEW YORK INC","NY","E","E92","1050 W GENESEE ST","SYRACUSE","13204-2215",13204,36067,8160,".",201412,"IN",NA,"Y","N",3,"HE","HE","HE","B","E",179,160,0,8,8,28785880,25079596,20155449,"Y","N","201412","25079596","20155449","bmf1608c3",194212,16,1,3,"","",0,1,"PC","O","HE","E",1000,1,"E92Z","621610",1,12,-76.172459,43.054443,"36","067","002101","36067002101","21.01","Census Tract 21.01","G5020","S",1578293,0,"+43.0526383","-076.1712469",2014
150539090,"ELMCREST CHILDRENS CENTER INC","NY","P","P73","960 SALT SPRINGS RD","SYRACUSE","13224-1639",13224,36067,8160,".",201506,"IN",NA,"Y","N",3,"HU","HU","HU","A","P",160,179,908,8,8,25225553,23029355,29986571,"Y","N","201506","23029355","29986571","bmf1608c3",195512,15,1,3,"","",0,1,"PC","O","HS","P",1000,1,"P730","624110",1,6,-76.0984247,43.045967,"36","067","004600","36067004600","46","Census Tract 46","G5020","S",3864670,0,"+43.0400611","-076.0977558",2015
150539102,"SYRACUSE JEWISH FAMILY SERVICE","NY","P","P40","4101 E GENESEE ST","SYRACUSE","13214-2136",13214,36067,8160,".",201506,"IN",NA,"Y","N",3,"HU","HU","HU","B","P",160,328,575,3,4,418213,418213,67432,"Y","N","201506","418213","67432","bmf1608c3",195108,15,1,3,"MITCHELL JAFFE","",0,1,"PC","O","HS","P",1000,1,"P40Z","624100",1,6,-76.0758169,43.0385831,"36","067","004600","36067004600","46","Census Tract 46","G5020","S",3864670,0,"+43.0400611","-076.0977558",2015
150539103,"JEWISH HOME OF CENTRAL NEW YORK INC","NY","E","E91","4101 E GENESEE ST","SYRACUSE","13214-2136",13214,36067,8160,".",201412,"IN",NA,"Y","N",3,"HE","HE","HE","B","E",150,0,0,8,8,15892021,15892021,16576077,"Y","N","201412","15892021","16576077","bmf1608c3",194210,16,1,3,"","",0,1,"PC","O","HE","E",1000,1,"","623110",1,12,-76.0758169,43.0385831,"36","067","004600","36067004600","46","Census Tract 46","G5020","S",3864670,0,"+43.0400611","-076.0977558",2014
150543651,"AURORA OF CENTRAL NEW YORK INC","NY","E","E30","518 JAMES STREET","SYRACUSE","13203-2238",13203,36067,8160,".",201506,"IN",NA,"Y","N",3,"HE","HE","HE","B","E",160,0,0,6,6,2680615,2551969,4298616,"Y","N","201506","2551969","4298616","bmf1608c3",194201,16,1,3,"","",0,1,"PC","O","HE","E",1000,1,"","621498",1,6,-76.1447569,43.0537849,"36","067","001600","36067001600","16","Census Tract 16","G5020","S",559576,0,"+43.0571312","-076.1378340",2015
150545833,"ST MARYS OF THE LAKE CHURCH","NY","X","X20","240 E ONONDAGA ST","SYRACUSE","13202-2608",13202,36067,8160,".",200206,"IN",NA,"N","N",3,"OT","RE","RE","A","X",31,150,120,0,0,0,0,0,"N","N","200206","0","0","bmf1608c3",194603,10,6,9,"","",928,1,"PC","O","RE","X",7000,1,"","813110",5,6,-76.1496499,43.0460197,"36","067","003200","36067003200","32","Census Tract 32","G5020","S",1257528,0,"+43.0480190","-076.1502417",2002
150561718,"NYSARC INC","NY","P","P82","600 S WILBUR AVE","SYRACUSE","13204-2730",13204,36067,8160,".",201412,"IN",NA,"Y","N",3,"HU","HU","HU","A","P",927,0,0,8,8,26732639,25746007,14203071,"Y","N","201412","25746007","14203071","bmf1608c3",195405,15,1,9,"NYSA","ONONDAGA COUNTY CHAPTER",1256,1,"PC","O","HS","P",2100,1,"P820","624120",5,12,-76.1766048,43.0440289,"36","067","002901","36067002901","29.01","Census Tract 29.01","G5020","S",1870601,0,"+43.0441999","-076.1820651",2014
150572881,"ROSAMOND GIFFORD CHARITABLE CORPORATION","NY","T","T20","100 CLINTON SQ 126 N SALINA","SYRACUSE","13202-0000",13202,36067,8160,".",201412,"IN",NA,"Y","N",3,"OT","PU","PU","C","T",602,0,0,8,7,8914961,0,21134303,"Y","N","201312","1268938","22169262","core2013pf",195608,4,0,3,"","",0,1,"PF","S","ZC","T",1000,1,"","813211",1,12,-76.1535304,43.0510449,"36","067","003200","36067003200","32","Census Tract 32","G5020","S",1257528,0,"+43.0480190","-076.1502417",2014
150616499,"EVERSON MUSEUM OF ART OF SYRACUSE AND ONONDAGA COUNTY","NY","A","A51","401 HARRISON ST","SYRACUSE","13202-3019",13202,36067,8160,".",201412,"IN",NA,"Y","N",3,"AR","AR","AR","A","A",65,207,119,6,6,1713136,1642006,2285885,"Y","N","201412","1642006","2285885","bmf1608c3",196311,15,1,3,"","",0,1,"PC","O","AR","A",2000,1,"A510","712110",1,12,-76.1467435,43.0447208,"36","067","003200","36067003200","32","Census Tract 32","G5020","S",1257528,0,"+43.0480190","-076.1502417",2014
150623468,"S U THEATRE CORPORATION","NY","A","A65","820 E GENESEE ST","SYRACUSE","13210-1508",13210,36067,8160,".",201506,"IN",NA,"Y","N",3,"AR","AR","AR","B","A",59,119,0,6,7,5257886,5155667,2187386,"Y","N","201506","5155667","2187386","bmf1608c3",196508,16,1,3,"MARY R KENNETT","",0,1,"PC","O","AR","A",2000,1,"A650","711110",1,6,-76.138147,43.046541,"36","067","004302","36067004302","43.02","Census Tract 43.02","G5020","S",1195046,0,"+43.0400403","-076.1346433",2015
150624395,"ERIE CANAL MUSEUM","NY","A","A54","318 ERIE BLVD E","SYRACUSE","13202-1106",13202,36067,8160,".",201412,"IN",NA,"Y","N",3,"AR","AR","AR","A","A",59,0,0,6,5,574114,530605,1002769,"Y","N","201412","530605","1002769","bmf1608c3",196406,15,1,3,"","",0,1,"PC","O","AR","A",2000,1,"A500","712110",1,12,-76.1488429,43.0506803,"36","067","003200","36067003200","32","Census Tract 32","G5020","S",1257528,0,"+43.0480190","-076.1502417",2014
150625350,"CNY ARTS INC","NY","A","A26","421 MONTGOMERY ST","SYRACUSE","13202-2923",13202,36067,8160,".",201506,"IN",NA,"Y","N",3,"AR","AR","AR","A","A",119,59,927,6,6,1727282,1727282,1247893,"Y","N","201506","1727282","1247893","bmf1608c3",196110,15,1,3,"","",0,1,"PC","O","AR","A",1000,1,"A260","710000",1,6,-76.1483066,43.0457477,"36","067","003200","36067003200","32","Census Tract 32","G5020","S",1257528,0,"+43.0480190","-076.1502417",2015
150625535,"SYRACUSE INTERGROUP INC","NY","F","F20","2513 JAMES ST","SYRACUSE","13206-2824",13206,36067,8160,".",201412,"IN",NA,"Y","N",3,"HE","HE","HE","B","F",998,0,0,2,3,79518,51588,13163,"Y","N","201412","51588","13163","bmf1608c3",200610,15,1,3,"","",0,1,"PC","O","HE","F",1000,1,"F20","621420",1,12,-76.111396,43.0686601,"36","067","001000","36067001000","10","Census Tract 10","G5020","S",1249510,0,"+43.0722084","-076.1095002",2014
150626910,"CENTRAL NEW YORK COMMUNITY FOUNDATION INC","NY","T","T31","431 E FAYETTE ST STE 100","SYRACUSE","13202-1920",13202,36067,8160,".",201503,"IN",NA,"Y","N",3,"OT","PU","PU","A","T",602,0,0,9,9,50722408,28234681,188016420,"Y","N","201503","28234681","188016420","bmf1608c3",194809,15,1,3,"","",0,1,"PC","S","ZD","T",1000,1,"T310","813211",1,3,-76.1467179,43.0490754,"36","067","003200","36067003200","32","Census Tract 32","G5020","S",1257528,0,"+43.0480190","-076.1502417",2015
150628113,"UNIVERSITY HILL CORPORATION","NY","S","S20","736 IRVING AVENUE","SYRACUSE","13210-1687",13210,36067,8160,".",201506,"IN",NA,"Y","N",3,"OT","PU","PU","B","S",999,0,0,4,4,142426,142426,292783,"Y","N","201506","142426","292783","bmf1608c3",196407,16,1,3,"","",0,1,"PC","O","PB","S",1280,1,"S20Z","813410",1,6,-76.1381868,43.0414201,"36","067","004301","36067004301","43.01","Census Tract 43.01","G5020","S",359062,0,"+43.0388643","-076.1400148",2015
156017936,"SYRACUSE PULP & PAPER FOUNDATION INC-COLLEGE OF FORESTRY AT SYRACUS","NY","S","S12","SUNY COLLEGE OF FORESTRY","SYRACUSE","13210-0000",13210,36067,8160,".",201506,"IN",NA,"Y","N",3,"OT","PU","PU","A","S",59,0,0,7,4,334208,319797,9306675,"Y","N","201506","319797","9306675","bmf1608c3",196201,13,1,3,"","",0,1,"PC","S","ZB","S",1000,1,"S41Z","813219",1,6,-76.1369148,43.0344612,"36","067","004302","36067004302","43.02","Census Tract 43.02","G5020","S",1195046,0,"+43.0400403","-076.1346433",2015
156018947,"CROUSE HOSPITAL AUXILIARY INC","NY","E","E11","736 IRVING AVENUE","SYRACUSE","13210-1687",13210,36067,8160,".",201412,"IN",NA,"Y","N",3,"HE","HE","HE","B","E",602,150,0,4,5,528777,239255,252453,"Y","N","201412","239255","252453","bmf1608c3",194307,17,1,3,"TMD","",0,1,"PC","S","ZA","E",1000,1,"E22I","813219",1,12,-76.1381868,43.0414201,"36","067","004301","36067004301","43.01","Census Tract 43.01","G5020","S",359062,0,"+43.0388643","-076.1400148",2014
156025122,"JUNIOR LEAGUE OF SYRACUSE INC","NY","S","S81","431 E FAYETTE ST STE 225","SYRACUSE","13202-1970",13202,36067,8160,".",201506,"IN",NA,"Y","N",3,"OT","PU","PU","A","S",927,561,0,4,4,147386,118297,261193,"Y","N","201506","118297","261193","bmf1608c3",194006,16,1,3,"","",0,1,"PC","O","PB","S",1000,1,"S810","813410",1,6,-76.1467179,43.0490754,"36","067","003200","36067003200","32","Census Tract 32","G5020","S",1257528,0,"+43.0480190","-076.1502417",2015
160873517,"LOURDES CAMP INC","NY","N","N20","1654 W ONONDAGA ST","SYRACUSE","13204-3310",13204,36067,8160,".",201412,"IN",NA,"Y","N",3,"HU","HU","HU","B","N",1,29,0,5,5,752529,700009,762730,"Y","N","201412","700009","762730","bmf1608c3",194603,16,1,9,"","",928,1,"PC","O","HS","N",1200,1,"","721214",5,12,-76.1816745,43.0340868,"36","067","003800","36067003800","38","Census Tract 38","G5020","S",772366,0,"+43.0361519","-076.1796494",2014
160876277,"PUBLIC BROADCASTING COUNCIL OF CENTRAL NEW YORK INC OLD LIVERPOOL","NY","A","A30","415 W FAYETTE ST","SYRACUSE","13204-2941",13204,36067,8160,".",201506,"IN",NA,"Y","N",3,"AR","AR","AR","A","A",161,180,59,8,7,6393850,6105543,19807938,"Y","N","201506","6105543","19807938","bmf1608c3",196503,15,1,3,"","",0,1,"PC","O","AR","A",2000,1,"A300","510000",1,6,-76.1600282,43.0478703,"36","067","003000","36067003000","30","Census Tract 30","G5020","S",804722,0,"+43.0461462","-076.1632030",2015
160915951,"ADVOCATES FOR UPSTATE MEDICAL UNIVERSITY","NY","E","E11","750 E ADAMS ST","SYRACUSE","13210-2306",13210,36067,8160,".",201505,"IN",NA,"Y","N",3,"HE","HE","HE","B","E",59,160,40,4,4,331006,304466,241236,"Y","N","201505","304466","241236","bmf1608c3",196905,16,1,3,"","UNIVERSITY HOSPITAL INC",0,1,"PC","S","ZA","E",1280,1,"E22I","813219",1,12,-76.1398344,43.0418643,"36","067","004301","36067004301","43.01","Census Tract 43.01","G5020","S",359062,0,"+43.0388643","-076.1400148",2015
160916474,"HOME AIDES OF CENTRAL NEW YORK INC","NY","P","P44","723 JAMES ST","SYRACUSE","13203-2001",13203,36067,8160,".",201412,"IN",NA,"Y","N",3,"HU","HU","HU","B","P",179,160,59,6,7,7630713,7618021,2051526,"Y","N","201412","7618021","2051526","bmf1608c3",0,15,1,3,"","",0,1,"PC","O","HS","P",1000,1,"P44Z","624190",1,12,-76.1426375,43.0557323,"36","067","001600","36067001600","16","Census Tract 16","G5020","S",559576,0,"+43.0571312","-076.1378340",2014
160923495,"SYRACUSE CANCER RESEARCH INSTITUTE INC","NY","H","H30","600 E GENESEE ST","SYRACUSE","13202-3130",13202,36067,8160,".",201412,"IN",NA,"Y","N",3,"HE","HE","HE","B","H",179,0,0,3,3,53961,51606,39362,"Y","N","201412","51606","39362","bmf1608c3",196603,15,1,3,"","",0,1,"PC","O","HE","H",8000,1,"H30Z","541710",1,12,-76.1433394,43.0470987,"36","067","003200","36067003200","32","Census Tract 32","G5020","S",1257528,0,"+43.0480190","-076.1502417",2014
160925269,"LEGAL SERVICES OF CENTRAL NEW YORK INC","NY","I","I80","221 S WARREN ST STE 300","SYRACUSE","13202-1843",13202,36067,8160,".",201512,"IN",NA,"Y","N",3,"HU","HU","HU","B","I",430,0,0,6,7,5201322,5201322,2781091,"Y","N","201512","5201322","2781091","bmf1608c3",196810,15,1,3,"","",0,1,"PC","O","HS","I",1000,1,"I80Z","541199",1,12,-76.150268,43.049001,"36","067","003200","36067003200","32","Census Tract 32","G5020","S",1257528,0,"+43.0480190","-076.1502417",2015
160955793,"PLAZA NURSING HOME COMPANY INC","NY","E","E91","614 CROUSE AVENUE","SYRACUSE","13210-1705",13210,36067,8160,".",201412,"IN",NA,"Y","N",3,"HE","HE","HE","B","E",150,0,0,7,7,7332205,7332205,7017283,"Y","N","201412","7332205","7017283","bmf1608c3",196810,12,1,3,"","",0,1,"PC","O","HE","E",1000,1,"E91Z","623110",1,12,-76.136818,43.0436395,"36","067","004302","36067004302","43.02","Census Tract 43.02","G5020","S",1195046,0,"+43.0400403","-076.1346433",2014
160959507,"POLISH SCHOLARSHIP FUND INC","NY","B","B82","PO BOX 6032","SYRACUSE","13217-6032",13217,36067,8160,".",201510,"IN",NA,"Y","N",3,"ED","ED","ED","A","B",40,0,0,3,3,85618,67047,62878,"Y","N","201510","67047","62878","bmf1608c3",197107,16,1,3,"","",0,1,"PC","O","ED","B",1000,1,"","813410",1,10,-76.1216514,43.0512498,"36","067","003500","36067003500","35","Census Tract 35","G5020","S",1137202,0,"+43.0479840","-076.1200136",2015
160960470,"CROUSE HEALTH HOSPITAL INC","NY","E","E22","736 IRVING AVE","SYRACUSE","13210-1687",13210,36067,8160,".",201412,"IN",NA,"Y","N",3,"HE","HE","EH","A","EH",150,0,0,9,9,398335203,397620756,289336283,"Y","N","201412","397620756","289336283","bmf1608c3",196911,12,1,3,"KIMBERLY BOYNTON","PAYROLL DEPT ATTN DENISE AMIDON",0,1,"PC","O","HE","E",1000,1,"E220","622110",1,12,-76.1381868,43.0414201,"36","067","004301","36067004301","43.01","Census Tract 43.01","G5020","S",359062,0,"+43.0388643","-076.1400148",2014
160966705,"TARKY LOMBARDI FOUNDATION INC","NY","T","T20","555 E GENESEE ST","SYRACUSE","13202-2118",13202,36067,8160,".",201512,"IN",NA,"Y","N",3,"OT","PU","PU","C","T",602,0,0,5,3,77751,0,667445,"Y","N","201312","64526","670981","core2013pf",197004,4,0,3,"","",0,1,"PF","S","ZC","T",1000,1,"","813211",1,12,-76.144592,43.0482129,"36","067","003200","36067003200","32","Census Tract 32","G5020","S",1257528,0,"+43.0480190","-076.1502417",2015
160970999,"MEALS ON WHEELS OF SYRACUSE NEW YORK INC","NY","K","K36","300 BURT ST","SYRACUSE","13202-3954",13202,36067,8160,".",201412,"IN",NA,"Y","N",3,"HU","HU","HU","B","K",561,0,0,6,6,1246417,1017509,1187917,"Y","N","201412","1017509","1187917","bmf1608c3",197009,15,1,3,"","",0,1,"PC","O","HS","K",1000,1,"","624210",1,12,-76.1463601,43.0378103,"36","067","004200","36067004200","42","Census Tract 42","G5020","S",887012,0,"+43.0386700","-076.1490912",2014
160977920,"IRON WORKERS LOCAL 60 EDUCATION & TRAINING FUND","NY","J","J40","500 W GENESEE ST","SYRACUSE","13204-2302",13204,36067,8160,".",201506,"IN",NA,"Y","N",3,"HU","HU","HU","B","J",126,0,0,5,5,598613,241223,968136,"Y","N","201506","241223","968136","bmf1608c3",198812,11,1,3,"","",0,1,"PC","O","HS","J",2000,1,"J40Z","813930",5,6,-76.1590069,43.053757,"36","067","002101","36067002101","21.01","Census Tract 21.01","G5020","S",1578293,0,"+43.0526383","-076.1712469",2015
160981162,"JOWONIO SCHOOL","NY","B","B21","3049 E GENESEE ST","SYRACUSE","13224-1699",13224,36067,8160,".",201506,"IN",NA,"Y","N",3,"ED","ED","ED","A","B",46,30,0,6,6,3723319,3715373,1351052,"Y","N","201506","3715373","1351052","bmf1608c3",197110,11,1,3,"","",0,1,"PC","O","ED","B",1200,1,"","611110",1,6,-76.099025,43.0433031,"36","067","004600","36067004600","46","Census Tract 46","G5020","S",3864670,0,"+43.0400611","-076.0977558",2015
160993654,"DAILY ORANGE CORPORATION","NY","B","B99","744 OSTROM AVE","SYRACUSE","13210-2942",13210,36067,8160,".",201507,"IN",NA,"Y","N",3,"ED","ED","ED","B","B",59,566,0,4,4,383569,383569,125674,"Y","N","201507","383569","125674","bmf1608c3",197307,16,1,3,"","",0,1,"PC","O","ED","B",2000,1,"","611000",1,7,-76.1286564,43.0379587,"36","067","004302","36067004302","43.02","Census Tract 43.02","G5020","S",1195046,0,"+43.0400403","-076.1346433",2015
160998428,"SYRACUSE MODEL NEIGHBORHOOD CORP","NY","L","L25","1721 S SALINA ST","SYRACUSE","13205-1350",13205,36067,8160,".",201504,"IN",NA,"Y","N",3,"HU","HU","HU","A","L",399,400,0,7,6,1997484,1994129,5056282,"Y","N","201504","1994129","5056282","bmf1608c3",197306,15,1,3,"","",0,1,"PC","O","HS","L",1000,1,"L250","624229",1,4,-76.1466129,43.0292412,"36","067","005300","36067005300","53","Census Tract 53","G5020","S",695620,0,"+43.0317144","-076.1476356",2015
160999280,"FAITH BAPTIST CHURCH & ACADEMY","NY","X","X20","101 N CLINTON ST STE 104","SYRACUSE","13202-1013",13202,36067,8160,".",201512,"IN",NA,"Y","Y",3,"OT","RE","RE","A","X",46,30,0,1,4,0,0,0,"Y","Y","201512","0","0","bmf1608c3",201304,10,6,3,"DAVID SNYDER","",0,1,"PC","O","RE","X",7000,1,"X20","813110",1,12,-76.1544254,43.0512708,"36","067","003200","36067003200","32","Census Tract 32","G5020","S",1257528,0,"+43.0480190","-076.1502417",2015
161002098,"LITERACYCNY INC","NY","B","B60","100 NEW ST","SYRACUSE","13202-3523",13202,36067,8160,".",201512,"IN",NA,"Y","N",3,"ED","ED","ED","A","B",0,0,0,4,4,322153,288607,121316,"Y","N","201512","288607","121316","bmf1608c3",196709,15,1,3,"","",0,1,"PC","O","ED","B",2000,1,"B92Z",".",1,12,-76.1492326,43.0402266,"36","067","004200","36067004200","42","Census Tract 42","G5020","S",887012,0,"+43.0386700","-076.1490912",2015
161006158,"CHURCHILL MANOR INC","NY","L","L22","700 E BRIGHTON AVE","SYRACUSE","13205-2201",13205,36067,8160,".",201412,"IN",NA,"Y","N",3,"HU","HU","HU","A","L",1,30,150,6,6,4270668,4270668,2337123,"Y","N","201412","4270668","2337123","bmf1608c3",194603,16,1,9,"","",928,1,"PC","O","HS","L",1700,1,"L22Z","623312",5,12,-76.1361985,43.0057858,"36","067","006101","36067006101","61.01","Census Tract 61.01","G5020","S",1364538,0,"+43.0071930","-076.1414663",2014
161006727,"CHRISTOPHER COMMUNITY INC","NY","L","L21","990 JAMES STREET","SYRACUSE","13203-2879",13203,36067,8160,".",201512,"IN",NA,"Y","N",3,"HU","HU","HU","A","L",1,30,150,7,6,3587511,3509782,8451709,"Y","N","201512","3509782","8451709","bmf1608c3",194603,16,1,9,"DAVID WILLIAMS","",928,1,"PC","O","HS","L",1700,1,"L210","624229",5,12,-76.1345347,43.0586946,"36","067","001600","36067001600","16","Census Tract 16","G5020","S",559576,0,"+43.0571312","-076.1378340",2015
161007087,"GREATER EAST SYRACUSE DAY CARE CENTER INC","NY","P","P33","3212 JAMES ST","SYRACUSE","13206-3044",13206,36067,8160,".",201509,"IN",NA,"Y","N",3,"HU","HU","HU","B","P",200,0,0,3,5,642446,642064,64658,"Y","N","201509","642064","64658","bmf1608c3",199407,16,1,3,"","",0,1,"PC","O","HS","P",1000,1,"P33Z","624410",1,9,-76.1019789,43.0686849,"36","067","001900","36067001900","19","Census Tract 19","G5020","S",1669479,0,"+43.0635483","-076.0968919",2015
161012804,"BERNARDINE APARTMENTS INC","NY","L","L22","700 E BRIGHTON AVE","SYRACUSE","13205-2201",13205,36067,8160,".",201412,"IN",NA,"Y","N",3,"HU","HU","HU","A","L",1,30,150,8,6,1185380,1185380,20823584,"Y","N","201412","1185380","20823584","bmf1608c3",194603,16,1,9,"","",928,1,"PC","O","HS","L",1700,1,"L22Z","623312",5,12,-76.1361985,43.0057858,"36","067","006101","36067006101","61.01","Census Tract 61.01","G5020","S",1364538,0,"+43.0071930","-076.1414663",2014
161019465,"LORETTA REST REALTY CORPORATION","NY","P","P75","700 E BRIGHTON AVE","SYRACUSE","13205-2201",13205,36067,8160,".",201412,"IN",NA,"Y","N",3,"HU","HU","HU","A","P",150,0,0,8,6,2123031,2123031,49823066,"Y","N","201412","2123031","49823066","bmf1608c3",197111,12,1,3,"","",0,1,"PC","O","HS","P",1000,1,"P750","623311",1,12,-76.1361985,43.0057858,"36","067","006101","36067006101","61.01","Census Tract 61.01","G5020","S",1364538,0,"+43.0071930","-076.1414663",2014
161019998,"CONSORTIUM FOR CHILDRENS SERVICES","NY","P","P30","2122 ERIE BLVD E","SYRACUSE","13224-1041",13224,36067,8160,".",201412,"IN",NA,"Y","N",3,"HU","HU","HU","B","P",125,560,917,4,4,339361,321665,194648,"Y","N","201412","321665","194648","bmf1608c3",197504,16,1,3,"","CHILDRENS CONSORTIUM",0,1,"PC","O","HS","P",1000,1,"","624110",1,12,-76.1114295,43.0522929,"36","067","003601","36067003601","36.01","Census Tract 36.01","G5020","S",1107236,0,"+43.0509535","-076.1092805",2014
161023352,"SPANISH ACTION LEAGUE OF ONONDAGA COUNTY INC","NY","P","P84","700 OSWEGO ST","SYRACUSE","13204-3116",13204,36067,8160,".",201412,"IN",NA,"Y","N",3,"HU","HU","HU","B","P",566,349,402,5,5,727479,689459,520479,"Y","N","201412","689459","520479","bmf1608c3",197203,16,1,3,"","",0,1,"PC","O","HS","P",2000,1,"P84Z","624120",1,12,-76.1641457,43.0411179,"36","067","004000","36067004000","40","Census Tract 40","G5020","S",501636,0,"+43.0415797","-076.1623869",2014
161035427,"CROUSE HEALTH FOUNDATION INC","NY","E","E11","736 IRVING AVENUE","SYRACUSE","13210-1687",13210,36067,8160,".",201412,"IN",NA,"Y","N",3,"HE","HE","HE","A","E",602,0,0,8,8,21818910,5261133,25549200,"Y","N","201412","5261133","25549200","bmf1608c3",197412,15,1,3,"","",0,1,"PC","S","ZA","E",1000,1,"E110","813219",1,12,-76.1381868,43.0414201,"36","067","004301","36067004301","43.01","Census Tract 43.01","G5020","S",359062,0,"+43.0388643","-076.1400148",2014
161037075,"SYRACUSE WOMENS INFORMATION CENTER INC","NY","P","P83","601 ALLEN ST","SYRACUSE","13210-2667",13210,36067,8160,".",201312,"IN",NA,"N","N",3,"HU","HU","HU","B","P",569,59,0,0,0,0,0,0,"N","N","201312",".",".","submaster990n",198710,16,2,3,"KAREN MIHAYLI","",0,1,"PC","O","HS","P",1000,1,"P83Z","624190",1,12,-76.116271,43.0414839,"36","067","004500","36067004500","45","Census Tract 45","G5020","S",1030766,0,"+43.0359707","-076.1181389",2013
161048413,"RABBI JACOB H EPSTEIN SCHOOL OF JEWISH STUDIES","NY","B","B25","PO BOX 161","SYRACUSE","13214-0161",13214,36067,8160,".",201606,"IN",NA,"Y","Y",3,"ED","ED","ED","A","B",30,0,0,0,0,0,0,0,"Y","Y","201606","0","0","bmf1608c3",197410,16,2,3,"","",0,1,"PC","O","ED","B",2000,1,"","611110",5,6,-76.0798006,43.0385133,"36","067","004600","36067004600","46","Census Tract 46","G5020","S",3864670,0,"+43.0400611","-076.0977558",2016
161060238,"NEW YORK CONFERENCE OF THE AMERICAN ASSOC OF UNIVERSITY PROFESS INC","NY","B","B03","PO BOX 35015","SYRACUSE","13235-0015",13235,36067,8160,".",201512,"IN",NA,"Y","N",3,"ED","ED","ED","A","B",59,0,0,2,3,62648,62648,24989,"Y","N","201512","62648","24989","bmf1608c3",198804,15,1,3,"","",0,1,"PC","O","ED","B",1000,1,"","813920",1,12,-76.1344965,43.0424109,"36","067","004302","36067004302","43.02","Census Tract 43.02","G5020","S",1195046,0,"+43.0400403","-076.1346433",2015
161064233,"INTERFAITH WORKS OF CENTRAL NEW YORK INC","NY","X","X90","1010 JAMES STREET","SYRACUSE","13203-2770",13203,36067,8160,".",201412,"IN",NA,"Y","N",3,"OT","RE","RE","B","X",29,0,0,6,6,3815063,3758530,2797384,"Y","N","201412","3758530","2797384","bmf1608c3",197709,10,6,3,"","",0,1,"PC","O","RE","X",7000,1,"","813110",1,12,-76.1334533,43.0591953,"36","067","001600","36067001600","16","Census Tract 16","G5020","S",559576,0,"+43.0571312","-076.1378340",2014
161068101,"THE UPSTATE FOUNDATION INC","NY","B","B82","750 E ADAMS ST","SYRACUSE","13210-2306",13210,36067,8160,".",201512,"IN",NA,"Y","N",3,"ED","ED","ED","A","B",602,0,0,9,8,44783348,15958645,139666348,"Y","N","201512","15958645","139666348","bmf1608c3",197606,15,1,3,"","",0,1,"PC","O","ED","B",1000,1,"P20","813410",1,12,-76.1398344,43.0418643,"36","067","004301","36067004301","43.01","Census Tract 43.01","G5020","S",359062,0,"+43.0388643","-076.1400148",2015
161071982,"ONONDAGA COUNTY BAR FOUNDATION INC","NY","I","I12","431 E FAYETTE ST STE 300","SYRACUSE","13202-1955",13202,36067,8160,".",201412,"IN",NA,"Y","N",3,"HU","HU","HU","B","I",124,602,0,4,3,40261,40261,171718,"Y","N","201412","40261","171718","bmf1608c3",197506,16,2,3,"","",0,1,"PC","S","ZB","I",1000,1,"I128","813219",1,12,-76.1467179,43.0490754,"36","067","003200","36067003200","32","Census Tract 32","G5020","S",1257528,0,"+43.0480190","-076.1502417",2014
161080039,"SYRACUSE COMMUNITY HEALTH CENTER INC","NY","T","T70","819 S SALINA ST","SYRACUSE","13202-3527",13202,36067,8160,".",201412,"IN",NA,"Y","N",3,"OT","PU","PU","B","T",927,602,0,8,8,25287557,25287557,24451622,"Y","N","201412","25287557","24451622","bmf1608c3",199209,17,1,3,"","",0,1,"PC","S","ZE","T",1000,1,"","813219",1,12,-76.1500292,43.0399041,"36","067","004200","36067004200","42","Census Tract 42","G5020","S",887012,0,"+43.0386700","-076.1490912",2014
161085314,"L ARCHE SYRACUSE INC","NY","P","P73","920 SPENCER STREET","SYRACUSE","13204-1243",13204,36067,8160,".",201512,"IN",NA,"Y","N",3,"HU","HU","HU","B","P",31,150,120,6,6,1795580,1775117,2159520,"Y","N","201512","1775117","2159520","bmf1608c3",194603,15,1,9,"CHECKS & BALANCE","",928,1,"PC","O","HS","P",1700,1,"P73Z","623990",5,12,-76.1749298,43.0582735,"36","067","000100","36067000100","1","Census Tract 1","G5020","S",4842958,1284980,"+43.0691355","-076.1730170",2015
161092059,"DE PAUL DAY CARE CORPORATION","NY","P","P33","1654 W ONONDAGA ST","SYRACUSE","13204-3310",13204,36067,8160,".",201512,"IN",NA,"Y","Y",3,"HU","HU","HU","B","P",1,30,150,0,0,0,0,0,"Y","Y","201512",".",".","submaster990n",194603,16,2,9,"","",928,1,"PC","O","HS","P",1200,1,"","624410",5,12,-76.1816745,43.0340868,"36","067","003800","36067003800","38","Census Tract 38","G5020","S",772366,0,"+43.0361519","-076.1796494",2015
161094509,"INSTITUTE OF INDUSTRIAL ENGINEERS INC","NY","U","U42","PO BOX 977","SYRACUSE","13201-0977",13201,36067,8160,".",201503,"IN",NA,"Y","Y",3,"OT","PU","PU","C","U",59,161,180,0,0,0,0,0,"Y","Y","201503",".",".","submaster990n",196305,16,2,9,"ED BAYLY","13 SYRACUSE",1579,1,"PC","O","PB","U",2800,1,"","541710",5,3,-76.1523256,43.045851,"36","067","003200","36067003200","32","Census Tract 32","G5020","S",1257528,0,"+43.0480190","-076.1502417",2015
161096225,"STUDENT LEGAL SERVICES INCORPORATED","NY","I","I80","760 OSTROM AVE","SYRACUSE","13210-2942",13210,36067,8160,".",201506,"IN",NA,"Y","N",3,"HU","HU","HU","B","I",59,461,37,2,4,254628,254628,10199,"Y","N","201506","254628","10199","bmf1608c3",197906,15,1,3,"","",0,1,"PC","O","HS","I",1200,1,"I80Z","541199",1,6,-76.1286036,43.0375207,"36","067","004302","36067004302","43.02","Census Tract 43.02","G5020","S",1195046,0,"+43.0400403","-076.1346433",2015
161099268,"ONONDAGA APARTMENTS HOUSING DEVELOPMENT FUND COMPANY INC","NY","L","L22","990 JAMES STREET","SYRACUSE","13203-2879",13203,36067,8160,".",201506,"IN",NA,"Y","N",3,"HU","HU","HU","A","L",995,382,0,6,5,777077,777077,4158848,"Y","N","201506","777077","4158848","bmf1608c3",197803,15,1,3,"CHRISTOPHER COMMUNITY INC","",0,1,"PC","O","HS","L",1000,1,"L210","623312",1,6,-76.1345347,43.0586946,"36","067","001600","36067001600","16","Census Tract 16","G5020","S",559576,0,"+43.0571312","-076.1378340",2015
161100759,"VILLAGE OF SKANEATELES HOUSING AUTHORITY","NY","L","L22","990 JAMES STREET","SYRACUSE","13203-2879",13203,36067,8160,".",201509,"IN",NA,"Y","N",3,"HU","HU","HU","A","L",381,0,0,5,4,196142,196142,552859,"Y","N","201509","196142","552859","bmf1608c3",198202,16,1,3,"CHRISTOPHER COMMUNITY INC","",0,1,"PC","O","HS","L",1000,1,"L22Z","623312",1,9,-76.1345347,43.0586946,"36","067","001600","36067001600","16","Census Tract 16","G5020","S",559576,0,"+43.0571312","-076.1378340",2015
161116632,"SYRACUSE NORTHEAST COMMUNITY CENTER INC","NY","N","N31","716 HAWLEY AVE","SYRACUSE","13203-2924",13203,36067,8160,".",201412,"IN",NA,"Y","N",3,"HU","HU","HU","B","N",603,296,994,4,5,573774,573468,236276,"Y","N","201412","573468","236276","bmf1608c3",197909,15,1,3,"","",0,1,"PC","O","HS","N",1000,1,"N31Z","713940",1,12,-76.1323479,43.054702,"36","067","002400","36067002400","24","Census Tract 24","G5020","S",465678,0,"+43.0540773","-076.1350296",2014
161117485,"NEHDA INC","NY","S","S21","101 GERTRUDE ST","SYRACUSE","13203-2417",13203,36067,8160,".",201504,"IN",NA,"Y","N",3,"OT","PU","PU","A","S",994,400,0,4,3,31118,22923,402832,"Y","N","201504","22923","402832","bmf1608c3",197903,15,2,3,"","",0,1,"PC","O","PB","S",0,1,"S210","813410",1,4,-76.1391564,43.0535973,"36","067","002400","36067002400","24","Census Tract 24","G5020","S",465678,0,"+43.0540773","-076.1350296",2015
161119455,"SCHOLA MUSICORUM INC","NY","A","A68","PO BPX 35189","SYRACUSE","13235-0000",13235,36067,8160,".",201406,"IN",NA,"N","N",3,"AR","AR","AR","A","A",603,994,0,0,0,0,0,0,"N","N","201406",".",".","submaster990n",197912,15,2,3,"KAREN NEZELEK","",0,1,"PC","O","AR","A",1000,1,"","711130",1,6,-76.1344965,43.0424109,"36","067","004302","36067004302","43.02","Census Tract 43.02","G5020","S",1195046,0,"+43.0400403","-076.1346433",2014
161123107,"PFI HOUSING COMPANY OF AUBURN INC C","NY","L","L22","990 JAMES STREET","SYRACUSE","13203-2879",13203,36067,8160,".",201512,"IN",NA,"Y","N",3,"HU","HU","HU","B","L",380,381,382,6,6,1233269,1233269,4714882,"Y","N","201512","1233269","4714882","bmf1608c3",197912,16,1,3,"CHRISTOPHER COMMUNITY INC","",0,1,"PC","O","HS","L",1000,1,"","623312",1,12,-76.1345347,43.0586946,"36","067","001600","36067001600","16","Census Tract 16","G5020","S",559576,0,"+43.0571312","-076.1378340",2015
161126883,"ST PETERS ITALIAN CHURCH HOUSING DEVELOPMENT FUND CO INC","NY","L","L11","990 JAMES STREET","SYRACUSE","13203-2879",13203,36067,8160,".",201509,"IN",NA,"Y","N",3,"HU","HU","HU","B","L",31,0,0,6,6,1161938,1161938,4374220,"Y","N","201509","1161938","4374220","bmf1608c3",194603,16,1,9,"CHRISTOPHER COMMUNITY INC","",928,1,"PC","S","ZA","L",1700,1,"","813219",5,9,-76.1345347,43.0586946,"36","067","001600","36067001600","16","Census Tract 16","G5020","S",559576,0,"+43.0571312","-076.1378340",2015
161129675,"LIBERTY RESOURCES INC","NY","F","F30","1045 JAMES STREET","SYRACUSE","13203-2730",13203,36067,8160,".",201412,"IN",NA,"Y","N",3,"HE","HE","HE","B","F",160,0,0,7,8,37248512,37248512,7525919,"Y","N","201412","37248512","7525919","bmf1608c3",199412,15,1,3,"","",0,1,"PC","O","HE","F",1000,1,"","621420",1,12,-76.1330444,43.0606832,"36","067","001600","36067001600","16","Census Tract 16","G5020","S",559576,0,"+43.0571312","-076.1378340",2014
161131702,"GROWING PLACE INC","NY","B","B21","3800 E GENESEE ST","SYRACUSE","13214-1933",13214,36067,8160,".",201506,"IN",NA,"Y","N",3,"ED","ED","ED","A","B",574,0,0,2,4,348030,348030,11262,"Y","N","201506","348030","11262","bmf1608c3",197912,11,1,3,"NANCY MEUNIER","",0,1,"PC","O","ED","B",2000,1,"B210","611110",1,6,-76.0821836,43.0396956,"36","067","004600","36067004600","46","Census Tract 46","G5020","S",3864670,0,"+43.0400611","-076.0977558",2015
161143087,"LADIES AUXILIARY OF THE JEWISH HOME OF CENTRAL NEW YORK INC","NY","E","E11","4101 E GENESEE ST","SYRACUSE","13214-2136",13214,36067,8160,".",201404,"IN",NA,"N","N",3,"HE","HE","HE","B","E",151,0,0,1,1,8002,8002,0,"N","N","201404","8002","0","bmf1608c3",198408,15,2,3,"GWEN KAY","",0,1,"PC","S","ZA","E",1000,1,"E91I","813219",1,4,-76.0758169,43.0385831,"36","067","004600","36067004600","46","Census Tract 46","G5020","S",3864670,0,"+43.0400611","-076.0977558",2014
161159198,"SYRACUSE ECONOMIC DEVELOPMENT CORPORATION","NY","S","S31","201 E WASHINGTON ST NO 6","SYRACUSE","13202-1433",13202,36067,8160,".",201512,"IN",NA,"Y","N",3,"OT","PU","PU","A","S",400,0,0,8,4,424402,424402,11178791,"Y","N","201512","424402","11178791","bmf1608c3",198508,15,1,3,"","",0,1,"PC","O","PB","S",1000,1,"S310","813410",1,12,-76.1504247,43.0497894,"36","067","003200","36067003200","32","Census Tract 32","G5020","S",1257528,0,"+43.0480190","-076.1502417",2015
161164138,"PERSON TO PERSON CITIZENS ADVOCACY ASSOCIATION INC","NY","R","R23","329 N SALINA ST STE 300","SYRACUSE","13203-1834",13203,36067,8160,".",201512,"IN",NA,"Y","N",3,"OT","PU","PU","A","R",994,160,559,4,4,251165,248485,165889,"Y","N","201512","248485","165889","bmf1608c3",198302,15,1,3,"","",0,1,"PC","O","PB","R",1000,1,"R23Z","813311",1,12,-76.152272,43.0555827,"36","067","002300","36067002300","23","Census Tract 23","G5020","S",493688,0,"+43.0558933","-076.1479862",2015
161165469,"CENTERSTATE DEVELOPMENT FOUNDATION INC","NY","S","S31","115 W FAYETTE ST","SYRACUSE","13202-1305",13202,36067,8160,".",201412,"IN",NA,"Y","N",3,"OT","PU","PU","B","S",402,0,0,6,6,2091018,2091018,4492453,"Y","N","201412","2091018","4492453","bmf1608c3",198204,16,1,3,"","",0,1,"PC","O","PB","S",1000,1,"S31Z","813410",1,12,-76.153038,43.048467,"36","067","003200","36067003200","32","Census Tract 32","G5020","S",1257528,0,"+43.0480190","-076.1502417",2014
161175282,"ST LUKE HOUSING DEVELOPMENT FUND CO INC","NY","L","L22","990 JAMES STREET","SYRACUSE","13203-2879",13203,36067,8160,".",201509,"IN",NA,"Y","N",3,"HU","HU","HU","A","L",0,0,0,6,5,928068,928068,2701500,"Y","N","201509","928068","2701500","bmf1608c3",194603,16,1,9,"CHRISTOPHER COMMUNITY","",928,1,"PC","O","HS","L",1700,1,"L210","623312",5,9,-76.1345347,43.0586946,"36","067","001600","36067001600","16","Census Tract 16","G5020","S",559576,0,"+43.0571312","-076.1378340",2015
161186293,"ARISE CHILD AND FAMILY SERVICE INC","NY","R","R23","635 JAMES STREET","SYRACUSE","13203-2226",13203,36067,8160,".",201506,"IN",NA,"Y","N",3,"OT","PU","PU","A","R",0,0,0,7,8,15679433,15679433,5631579,"Y","N","201506","15679433","5631579","bmf1608c3",198209,15,1,3,"","",0,1,"PC","O","PB","R",1000,1,"R230","813311",5,6,-76.1435982,43.0551435,"36","067","001600","36067001600","16","Census Tract 16","G5020","S",559576,0,"+43.0571312","-076.1378340",2015
161189492,"SYRACUSE ST PATRICKS PARADE COMMITTEE INC","NY","A","A84","PO BOX 11775","SYRACUSE","13218-1775",13218,36067,8160,".",201412,"IN",NA,"Y","N",3,"AR","AR","AR","A","A",64,0,0,4,4,102736,80597,100598,"Y","N","201412","80597","100598","bmf1608c3",201301,16,1,3,"","",0,1,"PC","O","AR","A",1000,1,"A23","710000",1,6,-76.1600074,43.0580795,"36","067","000100","36067000100","1","Census Tract 1","G5020","S",4842958,1284980,"+43.0691355","-076.1730170",2014
161199028,"ONONDAGA CYCLING CLUB INC","NY","N","N60","PO BOX 6307","SYRACUSE","13217-6307",13217,36067,8160,".",201512,"IN",NA,"Y","N",3,"HU","HU","HU","A","N",288,408,0,3,3,39187,39187,77219,"Y","N","201512","39187","77219","bmf1608c3",201402,16,2,3,"","",0,1,"PC","O","HS","N",1200,1,"N67","713990",1,12,-76.1216514,43.0512498,"36","067","003500","36067003500","35","Census Tract 35","G5020","S",1137202,0,"+43.0479840","-076.1200136",2015
161202480,"COMPANION-HOME SERVICES INC","NY","E","E92","1050 W GENESEE ST","SYRACUSE","13204-2215",13204,36067,8160,".",201512,"IN",NA,"Y","Y",3,"HE","HE","HE","B","E",179,0,0,0,0,0,0,0,"Y","N","201412",".","319983","990_file_list",198412,15,2,3,"","",0,1,"PC","O","HE","E",1000,1,"","621610",1,12,-76.172459,43.054443,"36","067","002101","36067002101","21.01","Census Tract 21.01","G5020","S",1578293,0,"+43.0526383","-076.1712469",2015
161216029,"WJPZ RADIO INC","NY","A","A34","316 WAVERLY AVE","SYRACUSE","13210-2437",13210,36067,8160,".",201508,"IN",NA,"Y","Y",3,"AR","AR","AR","B","A",0,0,0,0,0,0,0,0,"Y","Y","201508",".",".","submaster990n",199207,15,2,3,"","",0,1,"PC","O","AR","A",1000,1,"A34","513110",1,8,-76.1308825,43.0402924,"36","067","004302","36067004302","43.02","Census Tract 43.02","G5020","S",1195046,0,"+43.0400403","-076.1346433",2015
161234898,"LORETTA GERIATRIC COMMUNITY RESIDENCE INC","NY","P","P73","700 E BRIGHTON AVE","SYRACUSE","13205-2201",13205,36067,8160,".",201412,"IN",NA,"Y","N",3,"HU","HU","HU","B","P",153,994,0,5,6,1164070,1164070,717001,"Y","N","201412","1164070","717001","bmf1608c3",198506,15,1,3,"","",0,1,"PC","O","HS","P",1000,1,"P73Z","623990",1,12,-76.1361985,43.0057858,"36","067","006101","36067006101","61.01","Census Tract 61.01","G5020","S",1364538,0,"+43.0071930","-076.1414663",2014
161238053,"TRANSITIONAL RESIDENTIAL OPP OF CENTRAL NEW YORK INC","NY","P","P73","1903 COURT ST","SYRACUSE","13208-0000",13208,36067,8160,".",201412,"IN",NA,"Y","N",3,"HU","HU","HU","B","P",0,0,0,4,3,49765,49765,499052,"Y","N","201412","49765","499052","bmf1608c3",0,15,2,3,"","",0,1,"PC","O","HS","P",1000,1,"P73Z","623990",5,12,-76.1427392,43.0803784,"36","067","000300","36067000300","3","Census Tract 3","G5020","S",574912,0,"+43.0812047","-076.1483599",2014
161251176,"BARTELL ROAD HOUSING DEVELOPMENT FUND CO INC","NY","L","L20","990 JAMES STREET","SYRACUSE","13203-2879",13203,36067,8160,".",201512,"IN",NA,"Y","N",3,"HU","HU","HU","B","L",31,150,120,5,4,228066,228066,709707,"Y","N","201512","228066","709707","bmf1608c3",194603,16,1,9,"CHRISTOPHER COMMUNITY INC","",928,1,"PC","O","HS","L",1700,1,"","624229",5,12,-76.1345347,43.0586946,"36","067","001600","36067001600","16","Census Tract 16","G5020","S",559576,0,"+43.0571312","-076.1378340",2015
161252466,"INTERRELIGIOUS FOOD CONSORTIUM","NY","S","S99","222 TEALL AVE","SYRACUSE","13210-1201",13210,36067,8160,".",201512,"IN",NA,"Y","N",3,"OT","PU","PU","B","S",429,994,0,3,3,43998,40384,27863,"Y","N","201512","40384","27863","bmf1608c3",198602,15,2,3,"","",0,1,"PC","O","PB","S",1000,1,"B90","813410",1,12,-76.1209153,43.0517125,"36","067","003500","36067003500","35","Census Tract 35","G5020","S",1137202,0,"+43.0479840","-076.1200136",2015
161263983,"THE CORA FOUNDATION INC","NY","A","A23","505 HAWLEY AVE","SYRACUSE","13203-2411",13203,36067,8160,".",201506,"IN",NA,"Y","N",3,"AR","AR","AR","A","A",998,0,0,4,4,125990,112597,153315,"Y","N","201506","112597","153315","bmf1608c3",200906,15,1,3,"SYRACUSE CULTURAL WORKERS","",0,1,"PC","O","AR","A",1000,1,"A23","710000",1,6,-76.1359287,43.0534421,"36","067","002400","36067002400","24","Census Tract 24","G5020","S",465678,0,"+43.0540773","-076.1350296",2015
161264443,"SYRACUSE SPORTS CORPORATION","NY","N","N60","115 W FAYETTE ST","SYRACUSE","13202-1305",13202,36067,8160,".",201512,"IN",NA,"Y","Y",3,"HU","HU","HU","B","N",300,0,0,0,0,0,0,0,"Y","Y","201512",".",".","submaster990n",198808,16,2,3,"","",0,1,"PC","O","HS","N",3000,1,"","713990",1,12,-76.153038,43.048467,"36","067","003200","36067003200","32","Census Tract 32","G5020","S",1257528,0,"+43.0480190","-076.1502417",2015
161266169,"CAMP HIGH HOPES INC","NY","N","N20","PO BOX 11038","SYRACUSE","13218-1038",13218,36067,8160,".",201412,"IN",NA,"Y","N",3,"HU","HU","HU","B","N",318,0,0,2,3,28351,25092,17391,"Y","N","201412","25092","17391","bmf1608c3",201405,15,2,3,"","",0,1,"PC","O","HS","N",1000,1,"G99","721214",1,12,-76.1600074,43.0580795,"36","067","000100","36067000100","1","Census Tract 1","G5020","S",4842958,1284980,"+43.0691355","-076.1730170",2014
161275425,"ONONDAGA COMMUNITY LIVING INC","NY","P","P73","518 JAMES ST STE 110","SYRACUSE","13203-2094",13203,36067,8160,".",201412,"IN",NA,"Y","N",3,"HU","HU","HU","A","P",160,0,0,6,6,3414432,3414171,1944558,"Y","N","201412","3414171","1944558","bmf1608c3",198609,15,1,3,"","",0,1,"PC","O","HS","P",1000,1,"P730","623990",1,12,-76.1447569,43.0537849,"36","067","001600","36067001600","16","Census Tract 16","G5020","S",559576,0,"+43.0571312","-076.1378340",2014
161289199,"CNY WORKS INC","NY","J","J20","960 JAMES ST","SYRACUSE","13203-2503",13203,36067,8160,".",201506,"IN",NA,"Y","N",3,"HU","HU","HU","A","J",149,0,0,6,6,4144849,4144849,1192941,"Y","N","201506","4144849","1192941","bmf1608c3",199107,15,1,3,"","",0,1,"PC","O","HS","J",1000,1,"","561310",1,6,-76.135903,43.0579333,"36","067","001600","36067001600","16","Census Tract 16","G5020","S",559576,0,"+43.0571312","-076.1378340",2015
161291528,"ST ANTHONYS HOUSING DEVELOPMENT FUND CORP INC","NY","L","L22","990 JAMES STREET","SYRACUSE","13203-2879",13203,36067,8160,".",201509,"IN",NA,"Y","N",3,"HU","HU","HU","A","L",1,30,150,5,4,284333,284333,735034,"Y","N","201509","284333","735034","bmf1608c3",194603,15,1,9,"CHRISTOPHER COMMUNITY INC","",928,1,"PC","O","HS","L",1700,1,"","623312",5,9,-76.1345347,43.0586946,"36","067","001600","36067001600","16","Census Tract 16","G5020","S",559576,0,"+43.0571312","-076.1378340",2015
161295356,"MONSIGNOR ADAMSKI VILLAGE HOUSING DEVELOPMENT FUND COMPANY INC","NY","L","L20","990 JAMES STREET","SYRACUSE","13203-2879",13203,36067,8160,".",201503,"IN",NA,"Y","N",3,"HU","HU","HU","B","L",1,30,150,6,5,555202,555202,2381552,"Y","N","201503","555202","2381552","bmf1608c3",194603,11,1,9,"CHRISTOPHER COMMUNITY INC","",928,1,"PC","O","HS","L",1200,1,"","624229",5,3,-76.1345347,43.0586946,"36","067","001600","36067001600","16","Census Tract 16","G5020","S",559576,0,"+43.0571312","-076.1378340",2015
161305329,"OPEN HAND THEATER INC","NY","A","A65","518 PROSPECT AVE","SYRACUSE","13208-2523",13208,36067,8160,".",201409,"IN",NA,"Y","N",3,"AR","AR","AR","A","A",88,0,0,5,4,213388,213388,749481,"Y","N","201409","213388","749481","bmf1608c3",199202,15,1,3,"","",0,1,"PC","O","AR","A",1000,1,"A65Z","711110",1,9,-76.1516747,43.0592982,"36","067","000501","36067000501","5.01","Census Tract 5.01","G5020","S",714188,0,"+43.0637527","-076.1569900",2014
161310400,"THE UPSTATE NEW YORK BRANCH OF THE AMERICAN ASSOCIATION FOR","NY","U","U99","750 E ADAMS ST","SYRACUSE","13210-2306",13210,36067,8160,".",201512,"IN",NA,"Y","Y",3,"OT","PU","PU","B","U",180,0,0,0,0,0,0,0,"Y","Y","201512","0","0","bmf1608c3",199507,16,2,3,"DR ROBERT QUINN","",0,1,"PC","O","PB","U",1000,1,"U99Z","541710",5,12,-76.1398344,43.0418643,"36","067","004301","36067004301","43.01","Census Tract 43.01","G5020","S",359062,0,"+43.0388643","-076.1400148",2015
161311359,"POMPEI HOUSING DEVELOPMENT FUND CO INC","NY","L","L21","990 JAMES STREET","SYRACUSE","13203-2879",13203,36067,8160,".",201603,"IN",NA,"Y","N",3,"HU","HU","HU","B","L",1,30,150,6,5,543698,543698,1859429,"Y","N","201603","543698","1859429","bmf1608c3",194603,16,1,9,"CHRISTOPHER COMMUNITY INC","",928,1,"PC","O","HS","L",1200,1,"L21Z","624229",5,3,-76.1345347,43.0586946,"36","067","001600","36067001600","16","Census Tract 16","G5020","S",559576,0,"+43.0571312","-076.1378340",2016
161315982,"GRANTMAKERS FORUM OF NEW YORK","NY","T","T50","431 E FAYETTE ST","SYRACUSE","13202-1902",13202,36067,8160,".",201505,"IN",NA,"Y","N",3,"OT","PU","PU","A","T",603,0,0,1,4,115625,115625,0,"Y","N","201505","115625","0","bmf1608c3",198811,15,1,3,"","",0,1,"PC","S","PB","T",1000,1,"T20C","813219",1,5,-76.1467179,43.0490754,"36","067","003200","36067003200","32","Census Tract 32","G5020","S",1257528,0,"+43.0480190","-076.1502417",2015
161318525,"HAWLEY WINTON HOUSING DEV FND CO WALTER LUDOVICO APARTMENTS","NY","L","L21","990 JAMES STREET","SYRACUSE","13203-2879",13203,36067,8160,".",201509,"IN",NA,"Y","N",3,"HU","HU","HU","A","L",31,0,0,6,4,346081,346081,1520214,"Y","N","201509","346081","1520214","bmf1608c3",194603,16,1,9,"CHRISTOPHER COMMUNITY INC","HAWLEY-WINTON HOUSING",928,1,"PC","O","HS","L",1700,1,"L200","624229",5,9,-76.1345347,43.0586946,"36","067","001600","36067001600","16","Census Tract 16","G5020","S",559576,0,"+43.0571312","-076.1378340",2015
161328646,"SYRACUSE CATHOLIC PRESS ASSOCIATION INC","NY","X","X20","240 E ONONDAGA ST","SYRACUSE","13202-2608",13202,36067,8160,".",201506,"IN",NA,"Y","Y",3,"OT","RE","RE","B","X",1,30,150,0,0,0,0,0,"Y","Y","201506","0","0","bmf1608c3",194603,10,6,9,"","",928,1,"PC","O","RE","X",7000,1,"","813110",5,6,-76.1496499,43.0460197,"36","067","003200","36067003200","32","Census Tract 32","G5020","S",1257528,0,"+43.0480190","-076.1502417",2015
161328786,"SAMARITAN CENTER INC","NY","P","P20","215 N STATE ST","SYRACUSE","13203-1916",13203,36067,8160,".",201506,"IN",NA,"Y","N",3,"HU","HU","HU","B","P",560,916,0,6,6,2245555,2219913,1865529,"Y","N","201506","2219913","1865529","bmf1608c3",199411,15,1,3,"","",0,1,"PC","O","HS","P",1000,1,"","624000",1,6,-76.1493333,43.0528675,"36","067","002300","36067002300","23","Census Tract 23","G5020","S",493688,0,"+43.0558933","-076.1479862",2015
161330593,"JUBILEE HOMES OF SYRACUSE INC","NY","L","L80","901 TALLMAN ST","SYRACUSE","13204-4021",13204,36067,8160,".",201412,"IN",NA,"Y","N",3,"HU","HU","HU","B","L",994,381,0,5,4,397147,317298,602873,"Y","N","201412","317298","602873","bmf1608c3",199610,15,1,3,"","",0,1,"PC","O","HS","L",1000,1,"L20","624229",1,12,-76.161648,43.035508,"36","067","005200","36067005200","52","Census Tract 52","G5020","S",693127,0,"+43.0321901","-076.1590507",2014
161332634,"WESTERN NEW YORK GRANTMAKERS ASSOCIATION INC","NY","T","T03","431 E FAYETTE ST","SYRACUSE","13202-1902",13202,36067,8160,".",201412,"IN",NA,"Y","N",3,"OT","PU","PU","A","T",998,0,0,3,3,65442,65442,54199,"Y","N","201412","65442","54199","bmf1608c3",198907,15,1,3,"KATHLEEN CHRISTY","",0,1,"PC","S","PB","T",1200,1,"","813920",1,12,-76.1467179,43.0490754,"36","067","003200","36067003200","32","Census Tract 32","G5020","S",1257528,0,"+43.0480190","-076.1502417",2014
161332940,"HENRY KEEP HOUSING DEVELOPMENT FUND COMPANY INC","NY","L","L22","990 JAMES STREET","SYRACUSE","13203-2879",13203,36067,8160,".",201603,"IN",NA,"Y","N",3,"HU","HU","HU","A","L",382,0,0,6,4,404663,404663,1831090,"Y","N","201603","404663","1831090","bmf1608c3",199002,16,1,3,"CHRISTOPHER COMMUNITY INC","",0,1,"PC","O","HS","L",1000,1,"L21Z","623312",1,3,-76.1345347,43.0586946,"36","067","001600","36067001600","16","Census Tract 16","G5020","S",559576,0,"+43.0571312","-076.1378340",2016
161334738,"FRIENDS OF THE MUNDY BRANCH OF THE ONONDAGA COUNTY PUBLIC LIBRARY","NY","B","B11","1204 S GEDDES ST","SYRACUSE","13204-3937",13204,36067,8160,".",201512,"IN",NA,"Y","Y",3,"ED","ED","ED","A","B",602,0,0,0,0,0,0,0,"Y","Y","201512",".",".","submaster990n",198908,15,2,3,"","",0,1,"PC","S","ZA","B",1200,1,"","813219",1,12,-76.1746836,43.0357084,"36","067","003800","36067003800","38","Census Tract 38","G5020","S",772366,0,"+43.0361519","-076.1796494",2015
161334808,"MERCY HOUSING DEVELOPMENT FUND COMPANY INC","NY","L","L20","990 JAMES STREET","SYRACUSE","13203-2879",13203,36067,8160,".",201509,"IN",NA,"Y","N",3,"HU","HU","HU","B","L",1,30,150,6,5,539135,539135,2677941,"Y","N","201509","539135","2677941","bmf1608c3",194603,16,1,9,"CHRISTOPHER COMMUNITY INC","",928,1,"PC","O","HS","L",1700,1,"","624229",5,9,-76.1345347,43.0586946,"36","067","001600","36067001600","16","Census Tract 16","G5020","S",559576,0,"+43.0571312","-076.1378340",2015
161339564,"SYRACUSE CHILDRENS CHORUS INC","NY","A","A19","753 JAMES STREET","SYRACUSE","13203-2108",13203,36067,8160,".",201405,"IN",NA,"N","N",3,"AR","AR","AR","A","A",149,0,0,3,4,157853,150228,56147,"N","N","201405","150228","56147","core2013pc",199309,16,1,3,"","",0,1,"PC","O","AR","A",1000,1,"A6BZ","813219",1,5,-76.1414532,43.0562725,"36","067","001600","36067001600","16","Census Tract 16","G5020","S",559576,0,"+43.0571312","-076.1378340",2014
161343981,"CENTRAL NEW YORK PERSONAL COMPUTER USERS GROUP INC","NY","N","N50","PO BOX 6444","SYRACUSE","13217-6444",13217,36067,8160,".",201412,"IN",NA,"Y","Y",3,"HU","HU","HU","A","N",123,0,0,0,0,0,0,0,"Y","Y","201412",".",".","submaster990n",199404,16,2,3,"","",0,1,"PC","O","HS","N",1000,1,"","713990",1,12,-76.1216514,43.0512498,"36","067","003500","36067003500","35","Census Tract 35","G5020","S",1137202,0,"+43.0479840","-076.1200136",2014
161344129,"POND STREET HOUSING DEVELOPMENT FUND COMPANY INC","NY","L","L22","990 JAMES STREET","SYRACUSE","13203-2879",13203,36067,8160,".",201603,"IN",NA,"Y","N",3,"HU","HU","HU","A","L",1,30,150,6,4,486015,486015,1573889,"Y","N","201603","486015","1573889","bmf1608c3",194603,16,1,9,"CHRISTOPHER COMMUNITY INC","BISHOP HARRISON APARTMENTS",928,1,"PC","O","HS","L",1000,1,"L22Z","623312",5,3,-76.1345347,43.0586946,"36","067","001600","36067001600","16","Census Tract 16","G5020","S",559576,0,"+43.0571312","-076.1378340",2016
161352060,"PARTNERS IN LEARNING INC","NY","B","B90","105 RUGBY RD","SYRACUSE","13206-3226",13206,36067,8160,".",201506,"IN",NA,"Y","N",3,"ED","ED","ED","B","B",408,0,0,4,4,274251,267698,122520,"Y","N","201506","267698","122520","bmf1608c3",199401,15,1,3,"","",0,1,"PC","O","ED","B",1000,1,"","611710",1,6,-76.121557,43.066739,"36","067","000900","36067000900","9","Census Tract 9","G5020","S",1271793,0,"+43.0678446","-076.1271182",2015
161354828,"SYRACUSE FEIS","NY","N","N60","305 ERIE ST","SYRACUSE","13204-1603",13204,36067,8160,".",201512,"IN",NA,"Y","Y",3,"HU","HU","HU","C","N",300,0,0,0,0,0,0,0,"Y","Y","201512","0","0","bmf1608c3",199012,16,2,3,"GUS JOHNSTON","",0,1,"PC","O","HS","N",1000,1,"Z99Z","713990",1,12,-76.1924852,43.0517168,"36","067","002700","36067002700","27","Census Tract 27","G5020","S",604626,0,"+43.0501417","-076.1908215",2015
161355510,"SYRACUSE CERAMIC GUILD","NY","A","A40","PO BOX 6186","SYRACUSE","13217-6186",13217,36067,8160,".",201512,"IN",NA,"Y","N",3,"AR","AR","AR","B","A",91,149,0,2,3,60060,9342,13627,"Y","N","201512","9342","13627","bmf1608c3",199304,16,1,3,"","",0,1,"PC","O","AR","A",1000,1,"","710000",1,12,-76.1216514,43.0512498,"36","067","003500","36067003500","35","Census Tract 35","G5020","S",1137202,0,"+43.0479840","-076.1200136",2015
161358638,"NATIONAL KIDNEY FOUNDATION INC","NY","G","G44","731 JAMES STREET","SYRACUSE","13203-2039",13203,36067,8160,".",201506,"IN",NA,"Y","N",3,"HE","HE","HE","B","G",161,180,59,4,4,288248,215349,267305,"Y","N","201506","215349","267305","bmf1608c3",196909,15,1,9,"","OF CENTRAL NEW YORK INC",2041,1,"PC","O","HE","G",1000,1,"","813212",5,6,-76.1423698,43.0558868,"36","067","001600","36067001600","16","Census Tract 16","G5020","S",559576,0,"+43.0571312","-076.1378340",2015
161359060,"AIDS COMMUNITY RESOURCES","NY","G","G81","627 W GENESEE ST","SYRACUSE","13204-2303",13204,36067,8160,".",201506,"IN",NA,"Y","N",3,"HE","HE","HE","B","G",123,0,0,6,7,9376715,9269032,4339541,"Y","N","201506","9269032","4339541","bmf1608c3",199501,15,1,3,"MICHAEL CRINNIN","",0,1,"PC","O","HE","G",1000,1,"B99Z","813212",1,6,-76.1612437,43.0530141,"36","067","002101","36067002101","21.01","Census Tract 21.01","G5020","S",1578293,0,"+43.0526383","-076.1712469",2015
161363413,"ONONDAGA CASE MANAGEMENT SERVICES INC","NY","P","P80","620 ERIE BLVD W STE 302","SYRACUSE","13204-2463",13204,36067,8160,".",201512,"IN",NA,"Y","N",3,"HU","HU","HU","B","P",429,0,0,7,7,9642900,9642900,9044629,"Y","N","201512","9642900","9044629","bmf1608c3",199009,16,1,3,"","",0,1,"PC","O","HS","P",1000,1,"P800","624120",1,12,-76.1645254,43.0494002,"36","067","002101","36067002101","21.01","Census Tract 21.01","G5020","S",1578293,0,"+43.0526383","-076.1712469",2015
161363414,"TOOMEY RESIDENTIAL AND COMMUNITY SERVICES CORP","NY","P","P73","1654 W ONONDAGA ST","SYRACUSE","13204-3310",13204,36067,8160,".",201506,"IN",NA,"Y","N",3,"HU","HU","HU","A","P",349,0,0,7,8,10263782,10253602,6096902,"Y","N","201506","10253602","6096902","bmf1608c3",199105,15,1,3,"","",0,1,"PC","O","HS","P",1000,1,"P730","623990",1,6,-76.1816745,43.0340868,"36","067","003800","36067003800","38","Census Tract 38","G5020","S",772366,0,"+43.0361519","-076.1796494",2015
161364106,"CENTRAL NEW YORK SERVICES INC","NY","F","F30","518 JAMES ST STE 240","SYRACUSE","13203-2229",13203,36067,8160,".",201512,"IN",NA,"Y","N",3,"HE","HE","HE","B","F",166,0,0,8,8,16395176,16395176,12761264,"Y","N","201512","16395176","12761264","bmf1608c3",199008,16,1,3,"","",0,1,"PC","O","HE","F",1000,1,"F99Z","621420",1,12,-76.1447569,43.0537849,"36","067","001600","36067001600","16","Census Tract 16","G5020","S",559576,0,"+43.0571312","-076.1378340",2015
161365231,"CENTRAL NEW YORK RESEARCH CORPORATION","NY","H","H99","800 IRVING AVE","SYRACUSE","13210-2716",13210,36067,8160,".",201509,"IN",NA,"Y","N",3,"HE","HE","HE","B","H",603,161,162,6,6,1108531,1108531,1131830,"Y","N","201509","1108531","1131830","bmf1608c3",199105,17,1,3,"","",0,1,"PC","O","HE","H",1000,1,"H00Z","541710",1,9,-76.1389612,43.0386453,"36","067","004301","36067004301","43.01","Census Tract 43.01","G5020","S",359062,0,"+43.0388643","-076.1400148",2015
161365260,"ALOHA FOUNDATION","NY","T","T20","1801 BURNET AVE","SYRACUSE","13206-3370",13206,36067,8160,".",201412,"IN",NA,"Y","N",3,"OT","PU","PU","B","T",0,0,0,5,4,282196,0,859178,"Y","N","201312","78196","850621","core2013pf",199004,4,0,3,"LOWENSTEIN & MEDS CPAS","",0,1,"PF","S","ZC","T",1000,1,"","813211",5,12,-76.1115083,43.0573146,"36","067","001800","36067001800","18","Census Tract 18","G5020","S",897079,0,"+43.0622758","-076.1098792",2014
161367110,"AMERICAN ASSOCIATION OF ZOO KEEPERS","NY","D","D50","1 CONSERVATION PL","SYRACUSE","13204-2590",13204,36067,8160,".",201512,"IN",NA,"Y","Y",3,"OT","EN","EN","A","D",0,0,0,0,0,0,0,0,"Y","Y","201512",".",".","submaster990n",199201,16,2,9,"ROSAMOND GIFFORD ZOO AAZK","ROSAMOND GIFFORD ZOO",7155,1,"PC","O","EN","D",2000,1,"","712130",5,12,-76.1812892,43.0430813,"36","067","002901","36067002901","29.01","Census Tract 29.01","G5020","S",1870601,0,"+43.0441999","-076.1820651",2015
161369088,"CICERO HOUSING DEV FUND CO INC","NY","L","L22","990 JAMES STREET","SYRACUSE","13203-2879",13203,36067,8160,".",201503,"IN",NA,"Y","N",3,"HU","HU","HU","B","L",1,30,150,5,4,418407,418407,745070,"Y","N","201503","418407","745070","bmf1608c3",194603,16,1,9,"CHRISTOPHER COMMUNITY INC","",928,1,"PC","O","HS","L",1700,1,"L22Z","623312",5,3,-76.1345347,43.0586946,"36","067","001600","36067001600","16","Census Tract 16","G5020","S",559576,0,"+43.0571312","-076.1378340",2015
161373396,"HOWARD AND BESS CHAPMAN CHARITABLE CORPORATION","NY","T","T20","120 MADISON ST STE 1800","SYRACUSE","13202-2807",13202,36067,8160,".",201510,"IN",NA,"Y","N",3,"OT","PU","PU","C","T",602,59,0,6,6,1677437,0,2772931,"Y","N","201310","403048","2546679","core2013pf",199106,4,0,3,"PETER M DUNN","",0,1,"PF","S","ZC","T",1000,1,"","813211",1,10,-76.1498708,43.0450647,"36","067","003200","36067003200","32","Census Tract 32","G5020","S",1257528,0,"+43.0480190","-076.1502417",2015
161374219,"ONONDAGA ENVIRONMENTAL INSTITUTE INC","NY","C","C02","102 WEST DIVISION STREET","SYRACUSE","13204-1428",13204,36067,8160,".",201512,"IN",NA,"Y","N",3,"OT","EN","EN","A","C",994,402,0,4,5,501027,501027,309153,"Y","N","201512","501027","309153","bmf1608c3",199410,15,1,3,"","",0,1,"PC","O","EN","C",1000,1,"C023","541618",1,12,-76.1559072,43.0596833,"36","067","000100","36067000100","1","Census Tract 1","G5020","S",4842958,1284980,"+43.0691355","-076.1730170",2015
161375637,"HOUSING VISIONS UNLIMITED INC","NY","L","L20","1201 E FAYETTE ST","SYRACUSE","13210-1953",13210,36067,8160,".",201412,"IN",NA,"Y","N",3,"HU","HU","HU","B","L",380,0,0,7,6,1530578,1217420,9717419,"Y","N","201412","1217420","9717419","bmf1608c3",199208,16,1,6,"KENYON M CRAIG","",8105,1,"PC","O","HS","L",1000,1,"L25Z","624229",1,12,-76.1310654,43.0490355,"36","067","003400","36067003400","34","Census Tract 34","G5020","S",862442,0,"+43.0486573","-076.1342736",2014
161379232,"ALTERNATIVE EFFORTS CENTER OF CENTRAL NEW YORK INC","NY","L","L11","212 WAYNE ST","SYRACUSE","13203-2416",13203,36067,8160,".",201506,"IN",NA,"Y","N",3,"HU","HU","HU","B","L",399,0,0,3,3,67070,67070,70525,"Y","N","201506","67070","70525","bmf1608c3",199109,15,1,3,"ALAN LARSON","",0,1,"PC","S","ZA","L",1000,1,"L99I","813219",1,6,-76.1396981,43.0553208,"36","067","001600","36067001600","16","Census Tract 16","G5020","S",559576,0,"+43.0571312","-076.1378340",2015
161383908,"UNIVERSITY NEIGHBORHOOD PRESERVATION ASSOCIATION INC","NY","S","S20","230 WESTMINSTER AVE","SYRACUSE","13210-3004",13210,36067,8160,".",201506,"IN",NA,"Y","N",3,"OT","PU","PU","B","S",402,0,0,5,4,193110,193110,899955,"Y","N","201506","193110","899955","bmf1608c3",199203,15,1,3,"","",0,1,"PC","O","PB","S",1000,1,"S22Z","813410",1,6,-76.119684,43.032159,"36","067","004500","36067004500","45","Census Tract 45","G5020","S",1030766,0,"+43.0359707","-076.1181389",2015
161386153,"TRAC REPORTS INC","NY","V","V99","PO BOX 35532","SYRACUSE","13235-0532",13235,36067,8160,".",201512,"IN",NA,"Y","N",3,"OT","PU","PU","B","V",199,0,0,4,4,177968,177968,134502,"Y","N","201512","177968","134502","bmf1608c3",199209,16,1,3,"","",0,1,"PC","O","PB","V",2000,1,"V99Z","541720",1,12,-76.1344965,43.0424109,"36","067","004302","36067004302","43.02","Census Tract 43.02","G5020","S",1195046,0,"+43.0400403","-076.1346433",2015
161395992,"CENTER FOR COMMUNITY ALTERNATIVES","NY","I","I80","115 E JEFFERSON ST","SYRACUSE","13202-2539",13202,36067,8160,".",201412,"IN",NA,"Y","N",3,"HU","HU","HU","B","I",569,0,0,6,7,8312097,8309208,2588937,"Y","N","201412","8309208","2588937","bmf1608c3",199110,15,1,3,"SUSAN HORN","",0,1,"PC","O","HS","I",2000,1,"Z99Z","541199",1,12,-76.1516139,43.0471535,"36","067","003200","36067003200","32","Census Tract 32","G5020","S",1257528,0,"+43.0480190","-076.1502417",2014
161397267,"STRYKER HOUSING DEVELOPMENT FUND CO INC","NY","L","L20","990 JAMES STREET","SYRACUSE","13203-2879",13203,36067,8160,".",201511,"IN",NA,"Y","N",3,"HU","HU","HU","A","L",380,0,0,7,5,905082,905082,6417806,"Y","N","201511","905082","6417806","bmf1608c3",199205,16,1,3,"CHRISTOPHER COMMUNITY INC","",0,1,"PC","O","HS","L",1000,1,"L200","624229",1,11,-76.1345347,43.0586946,"36","067","001600","36067001600","16","Census Tract 16","G5020","S",559576,0,"+43.0571312","-076.1378340",2015
161398951,"NORTH AMERICAN INTERFAITH NETWORK INC","NY","X","X90","3049 GENESEE STREET","SYRACUSE","13224-1699",13224,36067,8160,".",201412,"IN",NA,"Y","Y",3,"OT","RE","RE","B","X",7,0,0,0,0,0,0,0,"Y","Y","201412",".",".","submaster990n",199110,16,2,3,"","",0,1,"PC","O","RE","X",7000,1,"X21Z","813110",1,12,-76.099025,43.0433031,"36","067","004600","36067004600","46","Census Tract 46","G5020","S",3864670,0,"+43.0400611","-076.0977558",2014
161401286,"CNY FAIR HOUSING INC","NY","L","L01","731 JAMES STREET","SYRACUSE","13203-2039",13203,36067,8160,".",201412,"IN",NA,"Y","N",3,"HU","HU","HU","B","L",994,0,0,4,5,516885,508118,171087,"Y","N","201412","508118","171087","bmf1608c3",199207,15,1,3,"","",0,1,"PC","O","HS","L",1000,1,"","813319",1,12,-76.1423698,43.0558868,"36","067","001600","36067001600","16","Census Tract 16","G5020","S",559576,0,"+43.0571312","-076.1378340",2014
161401396,"MILLER ROAD HOUSING DEVELOPMENT FUND COMPANY INC","NY","B","B28","990 JAMES STREET","SYRACUSE","13203-2879",13203,36067,8160,".",201512,"IN",NA,"Y","N",3,"ED","ED","ED","B","B",31,150,120,5,4,267520,267520,644299,"Y","N","201512","267520","644299","bmf1608c3",194603,16,1,9,"CHRISTOPHER COMMUNITY INC","",928,1,"PC","O","ED","B",1200,1,"","611699",5,12,-76.1345347,43.0586946,"36","067","001600","36067001600","16","Census Tract 16","G5020","S",559576,0,"+43.0571312","-076.1378340",2015
161401398,"LUDDEN HOUSING DEVELOPMENT FUND COMPANY INC","NY","L","L22","990 JAMES STREET","SYRACUSE","13203-2879",13203,36067,8160,".",201603,"IN",NA,"Y","N",3,"HU","HU","HU","B","L",0,0,0,6,4,459273,459273,1132089,"Y","N","201603","459273","1132089","bmf1608c3",0,16,1,9,"CHRISTOPHER COMMUNITY INC","",928,1,"PC","O","HS","L",1000,1,"L22Z","623312",5,3,-76.1345347,43.0586946,"36","067","001600","36067001600","16","Census Tract 16","G5020","S",559576,0,"+43.0571312","-076.1378340",2016
161402762,"SYRACUSE AREA BLACK NURSES ASSOCIATION INC","NY","A","A23","PO BOX 85","SYRACUSE","13205-0085",13205,36067,8160,".",201412,"IN",NA,"Y","Y",3,"AR","AR","AR","A","A",0,0,0,0,0,0,0,0,"Y","Y","201412",".",".","submaster990n",200606,16,2,3,"TANYA LIN HICKS","",0,1,"PC","O","AR","A",1000,1,"E039","710000",1,12,-76.1377935,42.9979838,"36","067","006103","36067006103","61.03","Census Tract 61.03","G5020","S",1951225,0,"+42.9926718","-076.1415797",2014
161404154,"YOREINU FOUNDATION","NY","T","T20","443 N FRANKLIN ST STE 210","SYRACUSE","13204-5426",13204,36067,8160,".",201512,"IN",NA,"Y","N",3,"OT","PU","PU","C","T",602,0,0,6,6,1040873,0,4127276,"Y","N","201312","515283","3734738","core2013pf",199112,4,0,3,"ALEXANDER S PASQUALE TRUSTEE","",0,1,"PF","S","ZC","T",1000,1,"","813211",2,12,-76.1569519,43.0566158,"36","067","000100","36067000100","1","Census Tract 1","G5020","S",4842958,1284980,"+43.0691355","-076.1730170",2015
161405520,"UPSTATE MEDICAL ANESTHESIOLOGY GROUP INC","NY","E","E31","750 EAST ADAMS STREET 4143","SYRACUSE","13210-2306",13210,36067,8160,".",201412,"IN",NA,"Y","N",3,"HE","HE","HE","B","E",168,0,0,6,8,16309780,16309780,3447843,"Y","N","201412","16309780","3447843","bmf1608c3",199308,16,1,3,"","",0,1,"PC","O","HE","E",1000,1,"","621491",1,12,-76.1398344,43.0418643,"36","067","004301","36067004301","43.01","Census Tract 43.01","G5020","S",359062,0,"+43.0388643","-076.1400148",2014
161408996,"ATONEMENT HOUSING CORPORATION OF SYRACUSE INC","NY","L","L50","116 W GLEN AVE","SYRACUSE","13205-2332",13205,36067,8160,".",201412,"IN",NA,"Y","N",3,"HU","HU","HU","A","L",995,380,0,4,4,310626,188750,238407,"Y","N","201412","188750","238407","bmf1608c3",199408,16,1,3,"NELSON W GAETZ","",0,1,"PC","O","HS","L",1200,1,"","813990",1,12,-76.1446436,43.0058685,"36","067","006101","36067006101","61.01","Census Tract 61.01","G5020","S",1364538,0,"+43.0071930","-076.1414663",2014
161410254,"SYRACUSE JAZZFEST PRODUCTION INC","NY","A","A68","314 NORTH AVENUE 2","SYRACUSE","13206-2833",13206,36067,8160,".",201508,"IN",NA,"Y","N",3,"AR","AR","AR","A","A",200,0,0,3,4,381834,381834,29572,"Y","N","201508","381834","29572","bmf1608c3",199602,15,1,3,"FRANK M MALFITANO","",0,1,"PC","O","AR","A",1000,1,"A680","711130",1,8,-76.1135178,43.0724037,"36","067","001000","36067001000","10","Census Tract 10","G5020","S",1249510,0,"+43.0722084","-076.1095002",2015
161418206,"CENTRAL NEW YORK SCOTTISH GAMES INC","NY","B","B99","PO BOX 6405","SYRACUSE","13217-6405",13217,36067,8160,".",201512,"IN",NA,"Y","N",3,"ED","ED","ED","B","B",995,30,0,3,3,57682,57682,48928,"Y","N","201512","57682","48928","bmf1608c3",199509,16,1,3,"BETSY A BUCHANAN","",0,1,"PC","O","ED","B",1000,1,"B99","611000",1,12,-76.1216514,43.0512498,"36","067","003500","36067003500","35","Census Tract 35","G5020","S",1137202,0,"+43.0479840","-076.1200136",2015
161421537,"IMMACULATE CONCEPTION HOUSING INC","NY","L","L20","990 JAMES STREET","SYRACUSE","13203-2879",13203,36067,8160,".",201512,"IN",NA,"Y","N",3,"HU","HU","HU","B","L",380,0,0,3,2,12591,12591,73395,"Y","N","201512","12591","73395","bmf1608c3",199704,16,2,3,"CHRISTOPHER COMMUNITY INC","",0,1,"PC","O","HS","L",1000,1,"L20Z","624229",1,12,-76.1345347,43.0586946,"36","067","001600","36067001600","16","Census Tract 16","G5020","S",559576,0,"+43.0571312","-076.1378340",2015
161425108,"HUMANITARIAN ORGANIZATION FOR MULTICULTURAL EXPERIENCES INC","NY","R","R30","831 JAMES STREET","SYRACUSE","13203-2570",13203,36067,8160,".",201412,"IN",NA,"Y","N",3,"OT","PU","PU","A","R",994,408,560,6,6,3059075,3059075,1042913,"Y","N","201412","3059075","1042913","bmf1608c3",199306,15,1,3,"","",0,1,"PC","O","PB","R",1000,1,"R300","813311",1,12,-76.1396826,43.0570405,"36","067","001600","36067001600","16","Census Tract 16","G5020","S",559576,0,"+43.0571312","-076.1378340",2014
161426312,"LORETTO-UTICA PROPERTIES CORPORATION","NY","E","E19","700 E BRIGHTON AVE","SYRACUSE","13205-2201",13205,36067,8160,".",201412,"IN",NA,"Y","Y",3,"HE","HE","HE","A","E",400,0,0,1,0,0,0,0,"Y","Y","201412","0","0","bmf1608c3",199307,16,2,3,"","",0,1,"PC","O","HE","E",1000,1,"E190","813219",1,12,-76.1361985,43.0057858,"36","067","006101","36067006101","61.01","Census Tract 61.01","G5020","S",1364538,0,"+43.0071930","-076.1414663",2014
161426336,"SARAH HOUSE INC","NY","P","P20","100 ROBERTS AVE","SYRACUSE","13207-1348",13207,36067,8160,".",201512,"IN",NA,"Y","N",3,"HU","HU","HU","B","P",560,0,0,4,4,221027,200301,238954,"Y","N","201512","200301","238954","bmf1608c3",199304,15,1,3,"","",0,1,"PC","O","HS","P",1000,1,"P20Z","624000",1,12,-76.1723159,43.0325404,"36","067","005000","36067005000","50","Census Tract 50","G5020","S",1149255,45948,"+43.0272963","-076.1689815",2015
161428952,"LORETTO-UTICA RESIDENTIAL HEALTH CARE FACILITY","NY","E","E91","700 E BRIGHTON AVE","SYRACUSE","13205-2201",13205,36067,8160,".",201412,"IN",NA,"Y","Y",3,"HE","HE","HE","A","E",152,0,0,1,0,0,0,0,"Y","Y","201412","0","0","bmf1608c3",199405,16,2,3,"","LORETTO-UTICA NURSING HOME",0,1,"PC","O","HE","E",1000,1,"E910","623110",1,12,-76.1361985,43.0057858,"36","067","006101","36067006101","61.01","Census Tract 61.01","G5020","S",1364538,0,"+43.0071930","-076.1414663",2014
161428959,"LORETTO-UTICA ADULT RESIDENCE INC","NY","E","E91","700 E BRIGHTON AVE","SYRACUSE","13205-2201",13205,36067,8160,".",201412,"IN",NA,"Y","N",3,"HE","HE","HE","B","E",380,0,0,3,0,0,0,26279,"Y","N","201412","0","26279","bmf1608c3",199304,16,0,3,"","",0,1,"PC","O","HE","E",1000,1,"L20Z","623110",1,12,-76.1361985,43.0057858,"36","067","006101","36067006101","61.01","Census Tract 61.01","G5020","S",1364538,0,"+43.0071930","-076.1414663",2014
161428990,"HARBOR VIEW HOUSING DEVELOPMENT FUND COMPANY INC","NY","L","L21","990 JAMES STREET","SYRACUSE","13203-2879",13203,36067,8160,".",201506,"IN",NA,"Y","N",3,"HU","HU","HU","B","L",1,30,150,6,4,179111,179111,1374129,"Y","N","201506","179111","1374129","bmf1608c3",194603,16,1,9,"CHRISTOPHER COMMUNITY INC","",928,1,"PC","O","HS","L",1700,1,"","624229",5,6,-76.1345347,43.0586946,"36","067","001600","36067001600","16","Census Tract 16","G5020","S",559576,0,"+43.0571312","-076.1378340",2015
161428994,"SMOKEY HOLLOW HOUSING DEVELOPMENT FUND COMPANY INC","NY","L","L12","990 JAMES STREET","SYRACUSE","13203-2879",13203,36067,8160,".",201506,"IN",NA,"Y","N",3,"HU","HU","HU","B","L",0,0,0,6,4,299193,299193,1303756,"Y","N","201506","299193","1303756","bmf1608c3",194603,16,1,9,"CHRISTOPHER COMMUNITY INC","",928,1,"PC","S","ZB","L",1700,0,"","813219",5,6,-76.1345347,43.0586946,"36","067","001600","36067001600","16","Census Tract 16","G5020","S",559576,0,"+43.0571312","-076.1378340",2015
161428995,"TYSON PLACE HOUSING DEVELOPMENT FUND COMPANY INC","NY","L","L20","990 JAMES STREET","SYRACUSE","13203-2879",13203,36067,8160,".",201603,"IN",NA,"Y","N",3,"HU","HU","HU","B","L",0,0,0,5,4,291515,291515,915792,"Y","N","201603","291515","915792","bmf1608c3",0,16,1,9,"CHRISTOPHER COMMUNITY INC","",928,1,"PC","O","HS","L",1700,0,"","624229",0,3,-76.1345347,43.0586946,"36","067","001600","36067001600","16","Census Tract 16","G5020","S",559576,0,"+43.0571312","-076.1378340",2016
161428996,"CATHERINE STREET HOUSING DEVELOPMENT FUND COMPANY INC","NY","B","B28","990 JAMES STREET","SYRACUSE","13203-2879",13203,36067,8160,".",201506,"IN",NA,"Y","N",3,"ED","ED","ED","B","B",31,150,120,6,4,297707,297707,1132133,"Y","N","201506","297707","1132133","bmf1608c3",194603,16,1,9,"CHRISTOPHER COMMUNITY INC","",928,1,"PC","O","ED","B",1700,1,"","611699",5,6,-76.1345347,43.0586946,"36","067","001600","36067001600","16","Census Tract 16","G5020","S",559576,0,"+43.0571312","-076.1378340",2015
161429466,"SYRACUSE GAY & LESBIAN CHORUS INC","NY","A","A6B","PO BOX 6796","SYRACUSE","13217-6796",13217,36067,8160,".",201512,"IN",NA,"Y","N",3,"AR","AR","AR","A","A",89,0,0,3,2,18626,18626,31817,"Y","N","201512","18626","31817","bmf1608c3",199304,16,2,3,"","",0,1,"PC","O","AR","A",2000,1,"A6BZ","711130",1,12,-76.1216514,43.0512498,"36","067","003500","36067003500","35","Census Tract 35","G5020","S",1137202,0,"+43.0479840","-076.1200136",2015
161429827,"700 W ONONDAGA ST HOUSING DEVELOPMENT FUND CO INC","NY","L","L80","990 JAMES STREET","SYRACUSE","13203-2879",13203,36067,8160,".",201512,"IN",NA,"Y","Y",3,"HU","HU","HU","B","L",380,995,0,0,0,0,0,0,"Y","Y","201512",".",".","submaster990n",199409,16,2,3,"DAVID R FILIPSKI","",0,1,"PC","O","HS","L",1000,1,"","624229",1,12,-76.1345347,43.0586946,"36","067","001600","36067001600","16","Census Tract 16","G5020","S",559576,0,"+43.0571312","-076.1378340",2015
161429861,"COVENANT HOUSING CORP OF CENTRAL NEW YORK","NY","L","L20","1228 TEALL AVE","SYRACUSE","13206-3468",13206,36067,8160,".",201512,"IN",NA,"Y","N",3,"HU","HU","HU","B","L",380,399,0,6,5,591713,591713,2154900,"Y","N","201512","591713","2154900","bmf1608c3",199306,15,1,3,"","",0,1,"PC","O","HS","L",1000,1,"Z99I","624229",1,12,-76.1221694,43.0637912,"36","067","001702","36067001702","17.02","Census Tract 17.02","G5020","S",998402,0,"+43.0608519","-076.1179082",2015
161431749,"SYRACUSE UNIVERSITY ALUMNI ASSOCIATION INC","NY","B","B84","401 UNIVERSITY PLACE 3RD FLOOR","SYRACUSE","13244-3020",13244,36067,8160,".",201506,"IN",NA,"Y","N",3,"ED","ED","ED","A","B",34,0,0,5,4,423969,402485,657034,"Y","N","201506","402485","657034","bmf1608c3",199308,17,1,3,"LOUIS G MARCOCCIA","",0,1,"PC","O","ED","B",1000,1,"B60Z","813410",1,6,-76.131912,43.039707,"36","067","004302","36067004302","43.02","Census Tract 43.02","G5020","S",1195046,0,"+43.0400403","-076.1346433",2015
161438534,"WINDS OF AGAPE INC","NY","P","P60","1414 GRANT BLVD","SYRACUSE","13208-3012",13208,36067,8160,".",201512,"IN",NA,"Y","N",3,"HU","HU","HU","B","P",0,0,0,5,5,949350,949350,967581,"Y","N","201512","949350","967581","bmf1608c3",199911,15,1,3,"","",0,1,"PC","O","HS","P",1000,1,"P60","624230",2,12,-76.1368955,43.0725626,"36","067","000400","36067000400","4","Census Tract 4","G5020","S",1524699,0,"+43.0762560","-076.1378045",2015
161440173,"FRIENDS OF THE CENTRAL LIBRARY INC","NY","B","B11","447 SOUTH SALINA ST 5TH FLOOR","SYRACUSE","13202-2417",13202,36067,8160,".",201506,"IN",NA,"Y","N",3,"ED","ED","ED","A","B",602,0,0,4,4,298149,298149,236459,"Y","N","201506","298149","236459","bmf1608c3",199310,16,1,3,"","",0,1,"PC","S","ZA","B",1000,1,"B71Z","813219",1,6,-76.1516451,43.0460397,"36","067","003200","36067003200","32","Census Tract 32","G5020","S",1257528,0,"+43.0480190","-076.1502417",2015
161442268,"ONONDAGA COUNTY PUBLIC LIBRARY BOARD OF TRUSTEES","NY","B","B11","447 S SALINA ST","SYRACUSE","13202-2494",13202,36067,8160,".",201412,"IN",NA,"Y","N",3,"ED","ED","ED","A","B",61,0,0,5,3,90587,90587,823928,"Y","N","201412","90587","823928","bmf1608c3",199405,15,1,3,"MARILYN R TUCCI","",0,1,"PC","S","ZA","B",2000,1,"B71Z","813219",1,12,-76.1516451,43.0460397,"36","067","003200","36067003200","32","Census Tract 32","G5020","S",1257528,0,"+43.0480190","-076.1502417",2014
161442502,"WELCH TERRACE HOUSING DEVELOPMENT FUND INC","NY","L","L24","518 JAMES ST STE 240","SYRACUSE","13203-2229",13203,36067,8160,".",201512,"IN",NA,"Y","N",3,"HU","HU","HU","A","L",31,150,120,5,4,266683,266683,549970,"Y","N","201512","266683","549970","bmf1608c3",201309,15,1,3,"","",0,1,"PC","O","HS","L",1000,1,"","624229",1,12,-76.1447569,43.0537849,"36","067","001600","36067001600","16","Census Tract 16","G5020","S",559576,0,"+43.0571312","-076.1378340",2015
161444906,"FAITH TABERNACLE CHRISTIAN CENTER INC CHURCH OF GOD INC CHRIST","NY","X","X21","1633 S STATE ST","SYRACUSE","13205-1141",13205,36067,8160,".",201412,"IN",NA,"Y","N",3,"OT","RE","RE","A","X",1,0,0,3,1,9741,9741,71419,"Y","N","201412","9741","71419","bmf1608c3",199604,10,6,3,"NONNIE L HOLLIMAN REV","",0,1,"PC","O","RE","X",7000,1,"X20Z","813110",1,12,-76.1446895,43.0287193,"36","067","005300","36067005300","53","Census Tract 53","G5020","S",695620,0,"+43.0317144","-076.1476356",2014
161447340,"EASTWOOD ROTARY FOUNDATION INC","NY","S","S80","PO BOX 172","SYRACUSE","13206-0172",13206,36067,8160,".",201506,"IN",NA,"Y","N",3,"OT","PU","PU","A","S",94,0,0,4,3,27542,27542,234137,"Y","N","201506","27542","234137","bmf1608c3",199408,15,2,3,"","",0,1,"PC","O","PB","S",1000,1,"","813410",1,6,-76.1030007,43.0699678,"36","067","001000","36067001000","10","Census Tract 10","G5020","S",1249510,0,"+43.0722084","-076.1095002",2015
161449220,"JEROME AND PHYLLIS CHARNEY FOUNDATION","NY","T","T20","329 N SALINA ST STE 400","SYRACUSE","13203-1770",13203,36067,8160,".",201512,"IN",NA,"Y","N",3,"OT","PU","PU","C","T",602,0,0,4,3,53816,0,207580,"Y","N","201312","2394","212396","core2013pf",199312,4,0,3,"SHELDON KRUTH","CHARNEY MELVIN ET AL TTEES",0,1,"PF","S","ZC","T",1000,1,"","813211",2,12,-76.152272,43.0555827,"36","067","002300","36067002300","23","Census Tract 23","G5020","S",493688,0,"+43.0558933","-076.1479862",2015
161449649,"U F A COMMUNITY CENTER INC","NY","N","N31","700 E BRIGHTON AVE","SYRACUSE","13205-2201",13205,36067,8160,".",201412,"IN",NA,"Y","N",3,"HU","HU","HU","B","N",296,0,0,4,0,0,0,322686,"Y","N","201412","0","322686","bmf1608c3",199503,15,2,3,"MATTHEW V BYRNE III","",0,1,"PC","O","HS","N",1000,1,"N41Z","713940",1,12,-76.1361985,43.0057858,"36","067","006101","36067006101","61.01","Census Tract 61.01","G5020","S",1364538,0,"+43.0071930","-076.1414663",2014
161449751,"JONATHAN CANCER FUND","NY","G","G30","329 N SALINA ST STE 300","SYRACUSE","13203-1834",13203,36067,8160,".",201412,"IN",NA,"Y","Y",3,"HE","HE","HE","A","G",561,0,0,0,0,0,0,0,"Y","Y","201412",".",".","submaster990n",201404,16,2,3,"MARCIA BELLINGER","",0,1,"PC","O","HE","G",1000,1,"T90","813212",1,12,-76.152272,43.0555827,"36","067","002300","36067002300","23","Census Tract 23","G5020","S",493688,0,"+43.0558933","-076.1479862",2014
161450994,"UNIVERSITY MEDICAL ASSOCIATES AT SYRACUSE INC","NY","E","E31","750 EAST ADAMS STREET NO CAB320","SYRACUSE","13210-2306",13210,36067,8160,".",201512,"IN",NA,"Y","Y",3,"HE","HE","HE","A","E",179,0,0,0,0,0,0,0,"Y","Y","201512","0","0","bmf1608c3",199509,16,2,3,"","",0,1,"PC","O","HE","E",1000,1,"E99Z","621491",1,12,-76.1398344,43.0418643,"36","067","004301","36067004301","43.01","Census Tract 43.01","G5020","S",359062,0,"+43.0388643","-076.1400148",2015
161451790,"YOUTH ENRICHMENT OUTREACH PROGRAM","NY","O","O20","PO BOX 841","SYRACUSE","13205-0841",13205,36067,8160,".",201506,"IN",NA,"Y","Y",3,"HU","HU","HU","B","O",994,2,321,0,0,0,0,0,"Y","Y","201506",".",".","submaster990n",201408,15,2,3,"AVERY BROOKS","",0,1,"PC","O","HS","O",1000,1,"O20","624110",5,6,-76.1377935,42.9979838,"36","067","006103","36067006103","61.03","Census Tract 61.03","G5020","S",1951225,0,"+42.9926718","-076.1415797",2015
161452100,"PARTNERS FOR EDUCATION AND BUSINESS INC","NY","S","S20","PO BOX 1095","SYRACUSE","13201-1095",13201,36067,8160,".",201506,"IN",NA,"Y","N",3,"OT","PU","PU","B","S",59,0,0,4,4,370657,370657,158680,"Y","N","201506","370657","158680","bmf1608c3",199407,16,1,3,"","",0,1,"PC","O","PB","S",1250,1,"O53Z","813410",1,12,-76.1523256,43.045851,"36","067","003200","36067003200","32","Census Tract 32","G5020","S",1257528,0,"+43.0480190","-076.1502417",2015
161454369,"ASSOCIATION OF CERTIFIED FRAUD","NY","I","I03","PO BOX 60","SYRACUSE","13201-0060",13201,36067,8160,".",201508,"IN",NA,"Y","Y",3,"HU","HU","HU","A","I",205,0,0,0,0,0,0,0,"Y","Y","201508",".",".","submaster990n",199503,16,2,3,"KAREN HOVEY","",0,1,"PC","O","HS","I",2000,1,"B60B","813920",1,8,-76.1523256,43.045851,"36","067","003200","36067003200","32","Census Tract 32","G5020","S",1257528,0,"+43.0480190","-076.1502417",2015
161455928,"SYRACUSE COMMUNITY RADIO","NY","A","A34","826 EUCLID AVE","SYRACUSE","13210-2541",13210,36067,8160,".",201412,"IN",NA,"Y","Y",3,"AR","AR","AR","A","A",995,121,0,0,0,0,0,0,"Y","Y","201412",".",".","submaster990n",199505,15,2,3,"DANNY DANHAUSER TRES","",0,1,"PC","O","AR","A",1000,1,"A32","513110",1,12,-76.119199,43.0365175,"36","067","004500","36067004500","45","Census Tract 45","G5020","S",1030766,0,"+43.0359707","-076.1181389",2014
161459179,"NORTH AREA ATHLETIC CLUB INC","NY","N","N31","507 POND ST","SYRACUSE","13208-2117",13208,36067,8160,".",201412,"IN",NA,"Y","N",3,"HU","HU","HU","B","N",995,300,321,4,4,209946,201046,348530,"Y","N","201412","201046","348530","bmf1608c3",199407,15,1,3,"","NORTH AREA ATHLETIC & EDUCATION CTR",0,1,"PC","O","HS","N",1000,1,"N60","713940",1,12,-76.151573,43.066525,"36","067","000600","36067000600","6","Census Tract 6","G5020","S",617027,0,"+43.0699860","-076.1526402",2014
161459786,"LORETTO-OSWEGO REALTY CORPORATION","NY","E","E91","700 E BRIGHTON AVE","SYRACUSE","13205-2201",13205,36067,8160,".",201512,"IN",NA,"Y","Y",3,"HE","HE","HE","B","E",995,152,0,0,0,0,0,0,"Y","Y","201512",".",".","submaster990n",199507,16,2,3,"JOHN MURRAY","",0,1,"PC","O","HE","E",1000,1,"E91","623110",1,12,-76.1361985,43.0057858,"36","067","006101","36067006101","61.01","Census Tract 61.01","G5020","S",1364538,0,"+43.0071930","-076.1414663",2015
161460777,"S C H C TOTAL CARE INC","NY","E","E31","819 S SALINA ST","SYRACUSE","13202-3527",13202,36067,8160,".",201412,"IN",NA,"Y","N",3,"HE","HE","HE","A","E",164,0,0,7,7,5492931,5492931,8075800,"Y","N","201412","5492931","8075800","bmf1608c3",199707,16,1,3,"","",0,1,"PC","O","HE","E",1000,1,"E31Z","621491",1,12,-76.1500292,43.0399041,"36","067","004200","36067004200","42","Census Tract 42","G5020","S",887012,0,"+43.0386700","-076.1490912",2014
161462012,"EMPIRE HOUSING AND DEVELOPMENT CORPORATION","NY","L","L20","643 PARK AVE","SYRACUSE","13204-2231",13204,36067,8160,".",201412,"IN",NA,"Y","N",3,"HU","HU","HU","B","L",381,0,0,4,4,441555,433153,467926,"Y","N","201412","433153","467926","bmf1608c3",199501,16,1,3,"ROBERT M SEKOWSKI","",0,1,"PC","O","HS","L",1000,1,"L20Z","624229",1,12,-76.170173,43.051674,"36","067","002101","36067002101","21.01","Census Tract 21.01","G5020","S",1578293,0,"+43.0526383","-076.1712469",2014
161466715,"LYONS COMMUNITY HEALTH INITIATIVES CORP","NY","E","E21","ONE PARK PLACE 300 S STATE STREET","SYRACUSE","13202-0000",13202,36067,8160,".",201508,"IN",NA,"Y","N",3,"HE","HE","EH","A","EH",165,0,0,7,5,655202,655202,5363399,"Y","N","201508","655202","5363399","bmf1608c3",199805,16,1,3,"","",0,1,"PC","O","HE","E",1200,1,"E30Z","622110",1,8,-76.1478992,43.0482696,"36","067","003200","36067003200","32","Census Tract 32","G5020","S",1257528,0,"+43.0480190","-076.1502417",2015
161468624,"NOTTINGHAM RESIDENTIAL HEALTH CARE FACILITY","NY","E","E91","700 E BRIGHTON AVE","SYRACUSE","13205-2201",13205,36067,8160,".",201412,"IN",NA,"Y","N",3,"HE","HE","HE","A","E",995,153,0,6,7,5811086,5811086,4542092,"Y","N","201412","5811086","4542092","bmf1608c3",199503,16,1,3,"","",0,1,"PC","O","HE","E",1000,1,"P75","623110",1,12,-76.1361985,43.0057858,"36","067","006101","36067006101","61.01","Census Tract 61.01","G5020","S",1364538,0,"+43.0071930","-076.1414663",2014
161468628,"NOTTINGHAM RETIREMENT COMMUNITY INC","NY","Y","Y30","700 E BRIGHTON AVE","SYRACUSE","13205-2201",13205,36067,8160,".",201412,"IN",NA,"Y","N",3,"OT","MU","MU","B","Y",179,0,0,8,8,10026781,10023340,17488052,"Y","N","201412","10023340","17488052","bmf1608c3",199504,16,1,3,"","",0,1,"PC","M","MR","Y",1000,1,"L22Z","525110",1,12,-76.1361985,43.0057858,"36","067","006101","36067006101","61.01","Census Tract 61.01","G5020","S",1364538,0,"+43.0071930","-076.1414663",2014
161468741,"STEGER HOUSING DEVELOPMENT FUND COMPANY INC","NY","L","L22","990 JAMES STREET","SYRACUSE","13203-2879",13203,36067,8160,".",201509,"IN",NA,"Y","N",3,"HU","HU","HU","A","L",31,150,120,6,4,325783,325783,1262143,"Y","N","201509","325783","1262143","bmf1608c3",194603,16,1,9,"CHRISTOPHER COMMUNITY INC","PROJECT NO 014-EE057",928,1,"PC","O","HS","L",1700,1,"","623312",5,9,-76.1345347,43.0586946,"36","067","001600","36067001600","16","Census Tract 16","G5020","S",559576,0,"+43.0571312","-076.1378340",2015
161468994,"LORETTO-UTICA FOUNDATION","NY","E","E99","700 E BRIGHTON AVE","SYRACUSE","13205-2201",13205,36067,8160,".",201412,"IN",NA,"Y","N",3,"HE","HE","HE","B","E",927,602,0,1,0,0,0,2906,"Y","N","201412","0","2906","bmf1608c3",199502,17,2,3,"JOHN COSTELLO","",0,1,"PC","O","HE","E",1000,1,"E99J","621999",1,12,-76.1361985,43.0057858,"36","067","006101","36067006101","61.01","Census Tract 61.01","G5020","S",1364538,0,"+43.0071930","-076.1414663",2014
161473613,"FRIENDS OF JOWONIO INC","NY","B","B99","3049 EAST GENESEE STREET","SYRACUSE","13224-1699",13224,36067,8160,".",201506,"IN",NA,"Y","N",3,"ED","ED","ED","B","B",602,0,0,6,4,338835,335775,1316394,"Y","N","201506","335775","1316394","bmf1608c3",199506,17,1,3,"","",0,1,"PC","O","ED","B",1000,1,"B99I","611000",1,6,-76.099025,43.0433031,"36","067","004600","36067004600","46","Census Tract 46","G5020","S",3864670,0,"+43.0400611","-076.0977558",2015
161473623,"EVANGELICAL CHARITIES INC","NY","X","X21","4325 S SALINA ST","SYRACUSE","13205-2064",13205,36067,8160,".",201512,"IN",NA,"Y","Y",3,"OT","RE","RE","A","X",995,399,566,0,0,0,0,0,"Y","Y","201512",".",".","submaster990n",201308,15,2,3,"SHELTON J SEALS","",0,1,"PC","O","RE","X",1000,1,"P20","813110",1,12,-76.142595,43.0062519,"36","067","006101","36067006101","61.01","Census Tract 61.01","G5020","S",1364538,0,"+43.0071930","-076.1414663",2015
