DATA_ID,NAME,TYPE,SUBTYPE1,SUBTYPE2,SUBTYPE3,RATING,REVIEWS,PRICE_HIGH,PRICE_LOW,ADDRESS,STREET,CITY,STATE,ZIPCODE,LATITUDE,LONGITUDE,TELEPHONE,WEBSITE,RESERVATIONS,DELIVERY,TAKEOUT,ACCEPTS_CREDIT,ACCEPTS_APPLE_PAY,ACCEPTS_ANDROID_PAY,ACCEPTS_BITCOIN,GOOD_FOR,PARKING,BIKE_PARKING,WHEELCHAIR_ACCESSIBLE,GOOD_FOR_KIDS,GOOD_FOR_GROUPS,ATTIRE,AMBIENCE,NOISE_LEVEL,ALCOHOL,OUTDOOR_SEATING,WIFI,HAS_TV,WAITER_SERVICE,CATERS,COAT_CHECK,DOGS_ALLOWED,HAS_POOL_TABLE,GOOD_FOR_DANCING,HAPPY_HOUR,BEST_NIGHTS,SMOKING,GOOD_FOR_WORKING,GENDER_NEUTRAL_RESTROOM,MUSIC,MILITARY_DISCOUNT,DRIVE_THRU,MON_OPEN,MON_CLOSE,TUE_OPEN,TUE_CLOSE,WED_OPEN,WED_CLOSE,THU_OPEN,THU_CLOSE,FRI_OPEN,FRI_CLOSE,SAT_OPEN,SAT_CLOSE,SUN_OPEN,SUN_CLOSE,RATING_5,RATING_4,RATING_3,RATING_2,RATING_1
1,Darwin,Restaurant,American (New),Sandwiches,,4.72027972,143,10,0,"211 N Clinton St, Syracuse, NY 13202",211 N Clinton St,Syracuse,NY,13202,43.0517903,-76.1537625,13153730484,darwinonclinton.com,No,Yes,Yes,Yes,No,,No,Lunch,Street,No,No,Yes,No,Casual,Casual,Average,No,No,No,No,No,Yes,,,,,,,,,,,,,10:30 AM,2:30 PM,10:30 AM,2:30 PM,10:30 AM,2:30 PM,10:30 AM,2:30 PM,10:30 AM,2:30 PM,,,,,110,26,7,0,0
2,Apizza Regionale,Restaurant,Pizza,Italian,Cocktail Bars,4.569230769,65,30,11,"260 W Genessee St, Syracuse, NY 13202",260 W Genessee St,Syracuse,NY,13202,43.0518888,-76.1548616,13158022607,apizzaregionale.com,No,No,No,Yes,No,,No,,"Street, Private Lot",Yes,Yes,Yes,Yes,Casual,Trendy,Average,Full Bar,Yes,Free,No,Yes,No,No,Yes,No,No,,,,,,,,,,,11:30 AM,2:30 PM,11:30 AM,2:30 PM,11:30 AM,2:30 PM,11:30 AM,2:30 PM,4:00 PM,11:00 PM,4:00 PM,9:00 PM,49,8,5,2,1
3,Dinosaur Bar-B-Que,Restaurant,Barbeque,American (Traditional),,4.293515358,1172,30,11,"246 W Willow St, Syracuse, NY 13202",246 W Willow St,Syracuse,NY,13202,43.052489,-76.154655,13154764937,dinosaurbarbque.com,No,No,Yes,Yes,No,No,,"Lunch, Dinner",Street,Yes,Yes,Yes,Yes,Casual,Casual,Loud,Full Bar,Yes,Free,Yes,Yes,Yes,,,,,,,,,,,,,11:00 AM,11:00 PM,11:00 AM,11:00 PM,11:00 AM,11:00 PM,11:00 AM,11:00 PM,11:00 AM,1:00 AM,11:00 AM,1:00 AM,11:00 AM,11:00 PM,644,329,121,55,23
4,Otro Cinco,Restaurant,Mexican,Spanish,,3.966887417,151,30,11,"206 S Warren St, Syracuse, NY 13202",206 S Warren St,Syracuse,NY,13202,43.0488693,-76.150832,13154226876,otro5cinco.com,Yes,Yes,Yes,Yes,No,,No,"Lunch, Dinner",Street,Yes,Yes,Yes,Yes,Casual,,Average,Full Bar,Yes,No,No,Yes,Yes,,No,,,,,,,,,,,10:00 AM,10:00 PM,10:00 AM,10:00 PM,10:00 AM,10:00 PM,10:00 AM,1:00 AM,10:00 AM,11:00 PM,11:00 AM,11:00 PM,11:00 AM,10:00 PM,69,43,16,11,12
5,Laci's Tapas Bar,Restaurant,Tapas/Small Plates,,,4.133802817,142,30,11,"304 Hawley Ave, Syracuse, NY 13203",304 Hawley Ave,Syracuse,NY,13203,43.0530932,-76.1414545,13152185903,lacistapasbar.com,Yes,No,Yes,Yes,,,,Dinner,"Street, Private Lot",Yes,No,No,Yes,Casual,Trendy,Average,Full Bar,No,No,No,Yes,Yes,,,,,,,,,,,,,,,4:00 PM,10:00 PM,4:00 PM,10:00 PM,4:00 PM,10:00 PM,4:00 PM,11:00 PM,4:00 PM,11:00 PM,,,67,43,16,16,0
6,Gangnam Style Korean Kitchen,Restaurant,Chicken Wings,Korean,,4.56097561,41,30,11,"115 Harvard Place, Syracuse, NY 13210",115 Harvard Place,Syracuse,NY,13210,43.0417129,-76.118844,13154221219,gangnamstylekitchen.com,No,Yes,Yes,Yes,Yes,,,Lunch,,Yes,Yes,Yes,No,Casual,,Quiet,No,No,Free,Yes,Yes,Yes,,,,,,,,,,,,,11:00 AM,11:00 PM,,,11:00 AM,11:00 PM,11:00 AM,11:00 PM,11:00 AM,11:00 PM,11:00 AM,11:00 PM,11:00 AM,11:00 PM,28,10,1,2,0
7,Aster Pantry & Parlor,Restaurant,American (New),,,3.893442623,122,30,11,"116 Walton St, Syracuse, NY 13202",116 Walton St,Syracuse,NY,13202,43.04802344,-76.15416893,13153730031,asterpantry.com,Yes,No,Yes,Yes,No,,,Dinner,Street,Yes,Yes,No,Yes,Casual,Classy,Average,Full Bar,Yes,Free,No,Yes,Yes,,,,,,,,,,,,,11:30 AM,9:00 PM,11:30 AM,9:00 PM,11:30 AM,9:00 PM,11:30 AM,10:30 PM,11:30 AM,10:30 PM,11:30 AM,10:30 PM,11:30 AM,8:00 PM,58,28,15,7,14
8,Pastabilities,Restaurant,Italian,,,4.145491803,488,30,11,"311 S Franklin St, Syracuse, NY 13202",311 S Franklin St,Syracuse,NY,13202,43.0483024,-76.1554058,13154741153,pastabilities.com,No,No,Yes,Yes,No,,,Dinner,"Garage, Street",Yes,Yes,Yes,Yes,Casual,Casual,Average,Full Bar,Yes,No,No,Yes,Yes,,No,,,,,,,,,,,11:30 AM,2:30 PM,11:30 AM,2:30 PM,11:30 AM,2:30 PM,11:30 AM,2:30 PM,11:30 AM,2:30 PM,11:30 AM,2:30 PM,4:00 PM,10:00 PM,215,179,59,20,15
9,Yamasho Sushi Steakhouse,Restaurant,Japanese,Sushi Bars,Steakhouses,4.75,52,30,11,"4713 Onondaga blvd\nSte 110, Syracuse, NY 13219",4713 Onondaga blvd\nSte 110,Syracuse,NY,13219,43.0351001,-76.1916407,13154758858,Yamashorestaurant.com,Yes,Yes,Yes,Yes,Yes,,,"Lunch, Dinner",,Yes,,Yes,Yes,Casual,,Average,Full Bar,No,No,Yes,Yes,No,,,,,,,,,,,,,11:30 AM,10:00 PM,11:30 AM,10:00 PM,11:30 AM,10:00 PM,11:30 AM,10:00 PM,11:30 AM,11:00 PM,11:30 AM,11:00 PM,12:00 PM,10:00 PM,43,6,2,1,0
10,Empire Brewing Company,Restaurant,American (Traditional),Beer Bar,Pubs,3.789115646,294,30,11,"120 Walton St, Syracuse, NY 13202",120 Walton St,Syracuse,NY,13202,43.0481785,-76.1546009,13154752337,empirebrew.com,Yes,No,Yes,Yes,,,,,,Yes,,No,Yes,Casual,,,Full Bar,Yes,Free,Yes,Yes,,,,,No,Yes,,,,,,,,11:30 AM,10:00 PM,11:30 AM,10:00 PM,11:30 AM,10:00 PM,11:30 AM,10:00 PM,11:30 AM,11:00 PM,11:30 AM,11:00 PM,10:00 AM,9:00 PM,93,105,52,29,15
11,Aloha Japanese Bento Express,Restaurant,Japanese,Hawaiian,Burmese,4.351851852,54,10,0,"217 S Salina St\nSte 3, Syracuse, NY 13202",217 S Salina St\nSte 3,Syracuse,NY,13202,43.0489373,-76.1519409,13158027384,alohajapanesebentoexpress.com,No,Yes,Yes,Yes,No,,,Lunch,Street,Yes,Yes,Yes,No,Casual,Casual,Quiet,No,No,Free,No,No,No,,,,,,,,,,,,,11:00 AM,8:30 PM,11:00 AM,8:30 PM,11:00 AM,8:30 PM,11:00 AM,8:30 PM,11:00 AM,8:30 PM,12:00 PM,8:00 PM,12:00 PM,8:00 PM,31,15,5,2,1
12,Lemon Grass,Restaurant,Thai,Steakhouses,,3.839694656,131,60,31,"238 W Jefferson St, Syracuse, NY 13202",238 W Jefferson St,Syracuse,NY,13202,43.0476679,-76.1544006,13154751111,lemongrasscny.com,Yes,No,Yes,Yes,,,,Dinner,Street,Yes,Yes,No,Yes,Dressy,Classy,Average,Full Bar,Yes,No,No,Yes,No,,,,,,,,,,,,,11:30 AM,2:30 PM,11:30 AM,2:30 PM,11:30 AM,2:30 PM,11:30 AM,2:30 PM,11:30 AM,2:30 PM,11:30 AM,2:30 PM,4:30 PM,9:00 PM,53,37,15,19,7
13,Mother's Cupboard Fish Fry & Diner,Restaurant,Diners,,,4.326923077,156,10,0,"3709 James St, Syracuse, NY 13206",3709 James St,Syracuse,NY,13206,43.069787,-76.092294,13154320942,,No,No,Yes,No,No,No,,"Breakfast, Brunch",Private Lot,Yes,Yes,Yes,No,Casual,Casual,Average,No,No,No,No,Yes,No,,,,,,,,,,,,,6:00 AM,1:30 PM,6:00 AM,1:30 PM,6:00 AM,1:30 PM,6:00 AM,1:30 PM,6:00 AM,1:30 PM,6:00 AM,1:30 PM,6:00 AM,1:30 PM,82,56,10,3,5
14,Joey's Classic Italian Dining,Restaurant,Italian,,,3.96875,96,30,11,"6594 Thompson Rd, Syracuse, NY 13206",6594 Thompson Rd,Syracuse,NY,13206,43.090556,-76.092046,13154320315,joeysitalianrestaurant.com,Yes,No,Yes,Yes,,,,Dinner,Private Lot,Yes,No,Yes,Yes,Casual,,Quiet,Full Bar,No,No,No,Yes,Yes,,,,,,,,,,,,,11:30 AM,10:00 PM,11:30 AM,10:00 PM,11:30 AM,10:00 PM,11:30 AM,10:00 PM,11:30 AM,11:00 PM,5:00 PM,11:00 PM,4:00 PM,9:00 PM,43,29,11,4,9
15,Bite Of Chongqing,Restaurant,Chinese,,,4.266666667,15,30,11,"656 North Salina St, Syracuse, NY 13208",656 North Salina St,Syracuse,NY,13208,43.060419,-76.1527333,13157066023,,No,Yes,Yes,Yes,,,,,,,,Yes,No,Casual,,,,No,Free,Yes,,,,,,,,,,,,,,,,,,,,,,,,,,,,,11,1,1,0,2
16,Riley's,Restaurant,Bars,American (Traditional),,4.220930233,86,30,11,"312 Park St, Syracuse, NY 13203",312 Park St,Syracuse,NY,13203,43.0632032,-76.1372144,13154717111,,Yes,No,Yes,Yes,,,,Dinner,Street,No,Yes,No,Yes,Casual,Casual,Average,Full Bar,No,No,Yes,Yes,,No,,No,No,Yes,"Wed, Thu, Fri",No,,,,,,11:30 AM,9:00 PM,11:30 AM,9:00 PM,11:30 AM,10:00 PM,11:30 AM,10:00 PM,11:30 AM,10:00 PM,11:30 AM,10:00 PM,,,39,31,12,4,0
17,The Chop House on Waring,Restaurant,Steakhouses,Seafood,American (Traditional),4.04,25,60,31,"200 Waring Rd, Syracuse, NY 13224",200 Waring Rd,Syracuse,NY,13224,43.0229998,-76.1006182,13154451976,thechophouseonwaring.com/web,Yes,No,Yes,Yes,,,,,Private Lot,Yes,Yes,Yes,Yes,Casual,,Average,Full Bar,Yes,Free,Yes,Yes,Yes,,No,,,,,,,,,,,,,4:30 PM,10:00 PM,4:30 PM,10:00 PM,4:30 PM,10:00 PM,4:30 PM,11:00 PM,4:30 PM,11:00 PM,11:00 AM,3:00 PM,13,6,2,2,2
18,Bistro Elephant Steakhouse,Restaurant,Steakhouses,,,3.970588235,34,60,31,"238 W Jefferson St, Syracuse, NY 13202",238 W Jefferson St,Syracuse,NY,13202,43.0476679,-76.1544006,13154751111,bistroelephant.com,Yes,No,No,Yes,,,,Dinner,,Yes,,No,Yes,Dressy,Classy,Quiet,Full Bar,Yes,No,Yes,Yes,,,,,,,,,,,,,,5:00 PM,12:00 AM,5:00 PM,12:00 AM,5:00 PM,12:00 AM,5:00 PM,12:00 AM,5:00 PM,12:00 AM,5:00 PM,12:00 AM,,,16,9,4,2,3
19,Eva's European Sweets,Restaurant,Polish,Coffee & Tea,,4.785714286,98,30,11,"1305 Milton Ave, Syracuse, NY 13204",1305 Milton Ave,Syracuse,NY,13204,43.0596117,-76.199611,13154872722,evaspolish.com,Yes,No,Yes,Yes,No,,,"Lunch, Dinner",Street,Yes,No,Yes,Yes,Casual,Casual,Average,Beer & Wine Only,No,Free,No,Yes,Yes,,,,,,,,No,,,,,,,11:00 AM,8:00 PM,11:00 AM,8:00 PM,11:00 AM,8:00 PM,11:00 AM,9:00 PM,12:00 PM,9:00 PM,,,77,21,0,0,0
20,Dark Horse Tavern,Restaurant,American (Traditional),,,4.120481928,83,30,11,"4312 E Genesee St, Syracuse, NY 13214",4312 E Genesee St,Syracuse,NY,13214,43.0350445,-76.0687401,13154463180,,No,No,Yes,Yes,,,,Dinner,Private Lot,Yes,No,No,No,Casual,Casual,Loud,Full Bar,No,No,Yes,Yes,No,,,,,,,,,,,,,11:30 AM,1:00 AM,11:30 AM,1:00 AM,11:30 AM,2:00 AM,11:30 AM,2:00 AM,11:30 AM,2:00 AM,11:30 AM,2:00 AM,4:00 PM,2:00 AM,36,27,15,4,1
21,Strada Mia,Restaurant,Italian,Seafood,,4.060606061,33,30,11,"313 N Geddes St, Syracuse, NY 13204",313 N Geddes St,Syracuse,NY,13204,43.05194831,-76.17093959,13158835995,stradamia313.com,Yes,No,Yes,Yes,,,,Dinner,Private Lot,No,,No,Yes,Casual,Classy,Average,Full Bar,Yes,,Yes,Yes,,,,,,,,,,,,,,11:30 AM,10:00 PM,11:30 AM,10:00 PM,11:30 AM,10:00 PM,11:30 AM,10:00 PM,11:30 AM,12:00 AM,11:30 AM,12:00 AM,,,16,10,3,1,3
22,Modern Malt,Restaurant,American (New),Breakfast & Brunch,Bakeries,3.653543307,254,30,11,"325 S Clinton St, Syracuse, NY 13202",325 S Clinton St,Syracuse,NY,13202,43.0481317,-76.1533469,13154716258,eatdrinkmalt.com,No,No,Yes,Yes,No,,,"Breakfast, Brunch, Lunch",Street,Yes,Yes,Yes,Yes,Casual,"Hipster, Casual, Trendy",Average,Full Bar,Yes,Free,Yes,Yes,Yes,,,,,,,,,,,,,7:00 AM,10:00 PM,7:00 AM,10:00 PM,7:00 AM,10:00 PM,7:00 AM,12:00 AM,7:00 AM,12:00 AM,8:00 AM,12:00 AM,8:00 AM,4:00 PM,83,76,34,46,15
23,Flame,Restaurant,Pizza,Tapas/Small Plates,,4.186046512,43,30,11,"713 E Fayette St, Syracuse, NY 13210",713 E Fayette St,Syracuse,NY,13210,43.048816,-76.141045,13154235263,flame713.com,Yes,Yes,Yes,Yes,,,,"Lunch, Dinner",Street,Yes,,No,Yes,Casual,"Casual, Trendy",Average,Full Bar,No,No,Yes,Yes,Yes,,,,,,,,,Yes,,,,,,4:00 PM,11:00 PM,4:00 PM,11:00 PM,4:00 PM,11:00 PM,4:00 PM,11:00 PM,4:00 PM,11:00 PM,,,23,12,4,1,3
24,New Century,Restaurant,Vietnamese,,,4.040697674,172,30,11,"518 Kirkpatrick St, Syracuse, NY 13208",518 Kirkpatrick St,Syracuse,NY,13208,43.06813509,-76.15387247,13154109999,newcenturyviet.com,No,No,Yes,Yes,No,,,"Lunch, Dinner","Street, Private Lot",Yes,No,Yes,Yes,Casual,Casual,Average,Beer & Wine Only,No,No,No,Yes,No,,,,,,,,,,,,,10:30 AM,9:00 PM,,,10:30 AM,9:00 PM,10:30 AM,9:00 PM,10:30 AM,11:00 PM,10:30 AM,11:00 PM,10:30 AM,9:00 PM,73,60,21,9,9
25,With Love,Restaurant,Pakistani,,,4.857142857,7,30,11,"435 N Salina St, Syracuse, NY 13203",435 N Salina St,Syracuse,NY,13203,43.05665351,-76.15234729,13158703861,withloverestaurant.com,Yes,No,Yes,Yes,,,,,,,,Yes,Yes,Casual,,,,No,,No,Yes,,,,,,,,,,,,,,,,12:00 PM,2:00 PM,12:00 PM,2:00 PM,5:00 PM,8:00 PM,5:00 PM,8:00 PM,,,,,6,1,0,0,0
26,Phoebe's Restaurant & Coffee Lounge,Restaurant,American (New),Coffee & Tea,Venues & Event Spaces,3.939759036,83,30,11,"900 E Genesee St, Syracuse, NY 13210",900 E Genesee St,Syracuse,NY,13210,43.0469515,-76.1377377,13154755154,phoebessyracuse.com,Yes,No,Yes,Yes,,,No,Dinner,"Garage, Street, Private Lot",Yes,No,Yes,Yes,Casual,Casual,Average,Full Bar,No,Free,Yes,Yes,Yes,,No,,,,,,Yes,,,,,8:00 AM,2:00 PM,8:00 AM,9:00 PM,8:00 AM,9:00 PM,8:00 AM,9:00 PM,8:00 AM,9:00 PM,12:00 PM,9:00 PM,,,27,36,11,6,3
27,Dosa Grill,Restaurant,Indian,,,4.140625,128,30,11,"4467 E Genesee St, Syracuse, NY 13214",4467 E Genesee St,Syracuse,NY,13214,43.035398,-76.0660951,13154455555,syracusedosagrill.com,Yes,No,Yes,Yes,,,,"Lunch, Dinner",Private Lot,Yes,,Yes,Yes,Casual,Casual,Average,Beer & Wine Only,No,No,No,Yes,Yes,,,,,,,,,,,,,11:00 AM,2:30 PM,11:00 AM,2:30 PM,11:00 AM,2:30 PM,11:00 AM,2:30 PM,11:00 AM,2:30 PM,11:00 AM,2:30 PM,11:00 AM,2:30 PM,57,46,14,8,3
28,Kitty Hoynes Irish Pub & Restaurant,Restaurant,Irish,Pubs,Music Venues,4.208092486,173,30,11,"301 W Fayette St, Syracuse, NY 13202",301 W Fayette St,Syracuse,NY,13202,43.0485403,-76.1557951,13154241974,kittyhoynes.com,Yes,No,Yes,Yes,No,,,Dinner,Street,Yes,Yes,No,Yes,Casual,Casual,Average,Full Bar,Yes,No,Yes,Yes,No,No,,No,No,Yes,"Thu, Fri, Sat",No,,,Live,,,11:00 AM,2:00 AM,11:00 AM,2:00 AM,11:00 AM,2:00 AM,11:00 AM,2:00 AM,11:00 AM,2:00 AM,11:00 AM,2:00 AM,,,79,62,22,9,1
29,Oompa Loompyas,Restaurant,Filipino,Asian Fusion,,4,18,10,0,"600 Burnet Ave, Syracuse, NY 13203",600 Burnet Ave,Syracuse,NY,13203,43.05208496,-76.13630299,13158765398,,No,Yes,Yes,No,,,,,,No,,Yes,No,Casual,,Quiet,,No,No,No,,Yes,,,,,,,,,,,,,,,11:00 AM,9:00 PM,11:00 AM,9:00 PM,11:00 AM,9:00 PM,9:00 AM,10:00 PM,9:00 AM,10:00 PM,9:00 AM,7:00 PM,9,4,3,0,2
30,Creole Soul Café,Restaurant,Cajun/Creole,,,4.513513514,37,30,11,"128 E Jefferson St, Syracuse, NY 13202",128 E Jefferson St,Syracuse,NY,13202,43.046754,-76.151751,13155304178,creolesoulcafe.com,No,Yes,Yes,Yes,,,No,,Street,Yes,Yes,Yes,Yes,Casual,Casual,Average,No,No,Free,Yes,No,Yes,,No,,,,,,,,,,,8:00 AM,8:00 PM,8:00 AM,8:00 PM,8:00 AM,8:00 PM,8:00 AM,9:00 PM,8:00 AM,9:00 PM,10:00 AM,9:00 PM,,,25,9,1,1,1
31,Strong Hearts Cafe,Restaurant,Vegan,Cafes,Sandwiches,4.17,300,10,0,"719 E Genesee St, Syracuse, NY 13210",719 E Genesee St,Syracuse,NY,13210,43.047694,-76.140435,13154780000,strongheartscafe.com,No,No,Yes,Yes,Yes,,,"Breakfast, Brunch, Lunch, Dinner, Dessert",Street,Yes,Yes,Yes,Yes,Casual,"Hipster, Casual",Average,No,No,Free,No,No,No,,,,,,,,,Yes,,,,8:00 AM,11:00 PM,8:00 AM,11:00 PM,8:00 AM,11:00 PM,8:00 AM,11:00 PM,8:00 AM,12:00 AM,9:00 AM,12:00 AM,9:00 AM,11:00 PM,141,96,41,17,5
32,Funk ‘n Waffles,Restaurant,American (New),Breakfast & Brunch,Waffles,3.770114943,87,10,0,"313 S Clinton St, Syracuse, NY 13202",313 S Clinton St,Syracuse,NY,13202,43.0483626,-76.1534216,13154741060,funknwaffles.com,No,Yes,Yes,Yes,No,,No,"Breakfast, Brunch, Lunch, Dinner, Late Night, Dessert","Garage, Street, Private Lot",Yes,Yes,Yes,Yes,Casual,"Hipster, Casual",Average,Full Bar,Yes,Free,No,No,Yes,,No,,,,,,,,,Yes,,9:00 AM,12:00 AM,9:00 AM,12:00 AM,9:00 AM,12:00 AM,9:00 AM,12:00 AM,9:00 AM,2:00 AM,9:00 AM,2:00 AM,9:00 AM,12:00 AM,29,28,17,7,6
33,J Ryan's Pub,Restaurant,Bars,American (Traditional),,4.296296296,54,30,11,"253 E Water St, Syracuse, NY 13202",253 E Water St,Syracuse,NY,13202,43.0507037,-76.1496521,13153995533,jryanspub.com,No,No,Yes,Yes,No,,,"Lunch, Dinner, Late Night",Street,Yes,Yes,No,Yes,Casual,Casual,Average,Full Bar,Yes,No,Yes,Yes,No,No,,Yes,No,Yes,"Thu, Fri, Sat",Outdoor Area / Patio Only,,,Juke Box,,,11:00 AM,2:00 AM,11:00 AM,2:00 AM,11:00 AM,2:00 AM,11:00 AM,2:00 AM,11:00 AM,2:00 AM,11:00 AM,2:00 AM,12:00 PM,12:00 AM,26,20,6,2,0
34,Ky Duyen Cafe,Restaurant,Cafes,Vietnamese,,4.454545455,44,10,0,"488 N Salina St, Syracuse, NY 13203",488 N Salina St,Syracuse,NY,13203,43.057665,-76.151769,13154715207,,No,No,Yes,No,,,,Lunch,Street,Yes,,Yes,Yes,Casual,Divey,Quiet,No,No,No,No,No,No,,,,,,,,,,,,,8:00 AM,5:00 PM,8:00 AM,5:00 PM,8:00 AM,5:00 PM,8:00 AM,5:00 PM,8:00 AM,5:00 PM,8:00 AM,5:00 PM,8:00 AM,5:00 PM,27,13,2,1,1
35,Texas de Brazil,Restaurant,Steakhouses,Gluten-Free,Brazilian,3.813186813,91,60,31,"306 Hiawatha Blvd W\nSpace L-117, Syracuse, NY 13208",306 Hiawatha Blvd W\nSpace L-117,Syracuse,NY,13208,43.06735559,-76.17235251,13154017990,texasdebrazil.com,Yes,No,Yes,Yes,No,No,,Dinner,Garage,No,Yes,No,Yes,Casual,Trendy,Average,Full Bar,No,No,No,Yes,Yes,,No,,,,,,,,,Yes,,5:00 PM,9:30 PM,5:00 PM,9:30 PM,5:00 PM,9:30 PM,5:00 PM,9:30 PM,5:00 PM,10:00 PM,4:00 PM,10:00 PM,4:00 PM,9:00 PM,30,34,13,8,6
36,Peppino's Neapolitan,Restaurant,Pizza,Italian,Wine Bars,4.523809524,42,30,11,"409 S Clinton St, Syracuse, NY 13202",409 S Clinton St,Syracuse,NY,13202,43.04759416,-76.15351152,13154228811,peppinosneo.com,Yes,Yes,Yes,Yes,No,No,No,Lunch,"Garage, Street",Yes,Yes,Yes,Yes,Casual,Casual,Average,Beer & Wine Only,Yes,No,No,Yes,Yes,No,Yes,,No,No,,,,,,,,10:00 AM,9:30 PM,10:00 AM,9:30 PM,10:00 AM,9:30 PM,10:00 AM,10:00 PM,10:00 AM,10:00 PM,10:00 AM,10:00 PM,11:00 AM,6:00 PM,30,8,0,4,0
37,Wolff's Biergarten,Restaurant,Bars,Beer Gardens,German,4.297297297,37,30,11,"106 Montgomery St., Syracuse, NY 13202",106 Montgomery St.,Syracuse,NY,13202,43.0501268,-76.1495237,13152997789,wolffsbiergarten.com,No,No,No,No,No,,,,Street,Yes,,No,Yes,Casual,Casual,Average,Full Bar,No,,Yes,No,No,No,,No,No,,"Thu, Fri, Sat",Outdoor Area / Patio Only,,,Background,,,11:00 AM,2:00 AM,11:00 AM,2:00 AM,11:00 AM,2:00 AM,11:00 AM,2:00 AM,11:00 AM,2:00 AM,9:00 AM,2:00 AM,9:00 AM,12:00 AM,20,13,0,3,1
38,Stella's Diner,Restaurant,Diners,,,3.841836735,196,10,0,"110 Wolf St, Syracuse, NY 13208",110 Wolf St,Syracuse,NY,13208,43.069096,-76.1653004,13154250353,stellasdinersyracuse.com,No,No,Yes,Yes,No,,,"Breakfast, Brunch, Lunch",Private Lot,Yes,Yes,Yes,Yes,Casual,Casual,Average,Beer & Wine Only,No,Free,Yes,Yes,Yes,,,,,,,,,,,,,5:00 AM,2:30 PM,5:00 AM,2:30 PM,5:00 AM,2:30 PM,5:00 AM,9:00 PM,5:00 AM,9:00 PM,5:00 AM,9:00 PM,5:00 AM,6:00 PM,60,80,27,23,6
39,PB&J's Lunch Box,Restaurant,Cafes,,,5,3,10,0,"989 James St, Syracuse, NY 13203",989 James St,Syracuse,NY,13203,43.059426,-76.135831,13154763287,pbandjslunchbox.com,,Yes,Yes,Yes,,,,,Private Lot,Yes,Yes,,,,,,No,,,,,Yes,,,,,,,,,,,,,7:30 AM,6:00 PM,7:30 AM,6:00 PM,7:30 AM,6:00 PM,7:30 AM,6:00 PM,7:30 AM,6:00 PM,8:00 AM,2:00 PM,,,3,0,0,0,0
40,21 Cafe,Restaurant,Hot Pot,Szechuan,Imported Food,4.5,24,30,11,"124 Headson Dr, Syracuse, NY 13214",124 Headson Dr,Syracuse,NY,13214,43.05493483,-76.08485108,13154466688,21cafesyracuse.com,No,Yes,Yes,Yes,No,,,Lunch,Private Lot,Yes,,Yes,Yes,Casual,Casual,Quiet,No,No,No,Yes,No,,,,,,,,,,,,,,11:00 AM,10:00 PM,11:00 AM,10:00 PM,11:00 AM,10:00 PM,11:00 AM,10:00 PM,11:00 AM,11:00 PM,11:00 AM,11:00 PM,11:00 AM,10:00 PM,17,4,2,0,1
41,Eleven Waters,Restaurant,American (Traditional),Bars,Breakfast & Brunch,3.238095238,21,30,11,"500 S Warren St, Syracuse, NY 13202",500 S Warren St,Syracuse,NY,13202,43.0454758,-76.1508415,13155543541,elevenwaters.com,Yes,No,Yes,Yes,,,,,,Yes,,No,Yes,Casual,Classy,Quiet,Full Bar,Yes,,Yes,Yes,,No,,No,No,Yes,"Fri, Sat",No,,,Background,,,6:30 AM,10:00 PM,6:30 AM,10:00 PM,6:30 AM,10:00 PM,6:30 AM,10:00 PM,6:30 AM,10:00 PM,7:00 AM,10:00 PM,7:00 AM,10:00 PM,4,6,4,5,2
42,The Evergreen,Restaurant,Beer Bar,American (Traditional),Gluten-Free,3.816326531,49,30,11,"125 E Water St, Syracuse, NY 13202",125 E Water St,Syracuse,NY,13202,43.0507314,-76.1512205,13158703500,theevergreen.co,No,No,Yes,Yes,No,,No,Dinner,"Garage, Street, Private Lot",Yes,Yes,No,Yes,Casual,"Hipster, Casual",Average,Full Bar,Yes,Free,Yes,No,No,No,No,No,No,Yes,,Outdoor Area / Patio Only,,,Background,,,3:00 PM,12:00 AM,3:00 PM,12:00 AM,3:00 PM,2:00 AM,3:00 PM,2:00 AM,3:00 PM,2:00 AM,3:00 PM,2:00 AM,,,20,12,8,6,3
43,The Cider Mill,Restaurant,Diners,American (New),,4.192307692,26,30,11,"4221 Fay Rd, Syracuse, NY 13219",4221 Fay Rd,Syracuse,NY,13219,43.0268274,-76.2211159,13154870647,thecidermill.us,No,No,Yes,Yes,No,No,No,,Private Lot,Yes,Yes,Yes,Yes,Casual,,Average,Full Bar,No,Free,Yes,Yes,Yes,,No,,,,,,,,,,,5:00 PM,10:00 PM,5:00 PM,10:00 PM,5:00 PM,10:00 PM,5:00 PM,10:00 PM,5:00 PM,11:00 PM,5:00 PM,11:00 PM,,,15,4,5,1,1
44,Wolf's Den,Restaurant,Gay Bars,American (Traditional),,4.428571429,7,30,11,"617 Wolf St, Syracuse, NY 13208",617 Wolf St,Syracuse,NY,13208,43.0752918,-76.1612121,13155605637,wolfsdensyracuse.com,Yes,,,No,No,,No,,"Street, Private Lot",No,Yes,No,Yes,Casual,,Average,Full Bar,Yes,,Yes,,,No,No,Yes,Yes,Yes,"Fri, Sat",Outdoor Area / Patio Only,,,Juke Box,,,,,4:00 PM,12:00 AM,4:00 PM,2:00 AM,4:00 PM,2:00 AM,4:00 PM,2:00 AM,4:00 PM,2:00 AM,4:00 PM,12:00 AM,4,2,1,0,0
45,Goodies Mediterranean,Restaurant,Mediterranean,Italian,,4.055555556,54,30,11,"3605 James St, Syracuse, NY 13206",3605 James St,Syracuse,NY,13206,43.0696297,-76.0956371,13154331003,goodiesmediterraneansyracuse.…,No,Yes,Yes,Yes,No,,,Dessert,,No,,Yes,Yes,Casual,Casual,Quiet,No,No,No,Yes,Yes,Yes,,,,,,,,,,,,,10:30 AM,9:00 PM,10:30 AM,9:00 PM,10:30 AM,9:00 PM,10:30 AM,9:00 PM,10:30 AM,10:00 PM,10:30 AM,10:00 PM,,,29,12,3,7,3
46,Chorong House Restaurant,Restaurant,Korean,,,3.82,100,30,11,"1121 E Fayette St, Syracuse, NY 13210",1121 E Fayette St,Syracuse,NY,13210,43.0486432,-76.1328802,13154280501,,No,No,Yes,Yes,,,,Dinner,Private Lot,Yes,,Yes,Yes,Casual,Casual,Quiet,Beer & Wine Only,No,No,No,Yes,No,,,,,,,,,,,,,11:30 AM,10:00 PM,11:30 AM,10:00 PM,11:30 AM,10:00 PM,11:30 AM,10:00 PM,11:30 AM,10:00 PM,11:30 AM,10:00 PM,,,38,27,21,7,7
47,Thai Flavor,Restaurant,Thai,,,4.021505376,93,30,11,"2863 Erie Blvd E, Syracuse, NY 13224",2863 Erie Blvd E,Syracuse,NY,13224,43.0554806,-76.091862,13152511366,,Yes,Yes,Yes,Yes,,,,"Lunch, Dinner",Private Lot,No,,Yes,Yes,Casual,,Quiet,Beer & Wine Only,No,No,No,Yes,Yes,,,,,,,,,,,,,,,11:00 AM,9:00 PM,11:00 AM,9:00 PM,11:00 AM,9:00 PM,11:00 AM,9:00 PM,11:00 AM,9:00 PM,12:00 PM,8:00 PM,32,40,13,7,1
48,Tang Flavor,Restaurant,Szechuan,Cantonese,,4.077922078,77,30,11,"413 S Warren St, Syracuse, NY 13202",413 S Warren St,Syracuse,NY,13202,43.0467136,-76.1507379,13154720279,tangflavor.com/index.php/home,Yes,Yes,Yes,Yes,,,,"Lunch, Dinner","Garage, Street, Private Lot, Validated",No,Yes,Yes,Yes,Casual,Casual,Quiet,No,No,No,Yes,Yes,Yes,,No,,,,,,,,,,,11:00 AM,10:00 PM,11:00 AM,10:00 PM,11:00 AM,10:00 PM,11:00 AM,10:00 PM,11:00 AM,10:00 PM,11:00 AM,10:00 PM,11:00 AM,9:30 PM,34,27,9,2,5
49,Alto Cinco,Restaurant,Mexican,Tex-Mex,,3.776666667,300,30,11,"526 Westcott St, Syracuse, NY 13210",526 Westcott St,Syracuse,NY,13210,43.0411505,-76.1195596,13154226399,altocinco.net,No,Yes,Yes,Yes,No,,,"Lunch, Dinner",Street,Yes,Yes,Yes,Yes,Casual,Hipster,Average,Full Bar,Yes,Free,No,Yes,Yes,,,,,,,,,Yes,,,,8:00 AM,2:00 AM,8:00 AM,2:00 AM,8:00 AM,2:00 AM,8:00 AM,2:00 AM,8:00 AM,2:00 AM,8:00 AM,2:00 AM,10:00 AM,2:00 AM,104,99,47,26,24
50,The York,Restaurant,American (New),Cocktail Bars,Lounges,3.625,64,30,11,"247 W Fayette St, Syracuse, NY 13202",247 W Fayette St,Syracuse,NY,13202,43.048494,-76.155174,13157010636,yorkcny.com,Yes,No,Yes,Yes,,,,Dinner,Street,Yes,,No,Yes,Casual,Trendy,Average,Full Bar,No,Free,Yes,Yes,,Yes,,No,No,Yes,"Thu, Fri, Sat",No,,,Background,,,5:00 PM,12:00 AM,5:00 PM,12:00 AM,5:00 PM,12:00 AM,5:00 PM,12:00 AM,4:00 PM,2:00 AM,4:00 PM,2:00 AM,,,20,22,5,12,5
51,Red Chili,Restaurant,Szechuan,Hot Pot,Asian Fusion,3.905263158,95,30,11,"2740 Erie Blvd E, Syracuse, NY 13224",2740 Erie Blvd E,Syracuse,NY,13224,43.05423029,-76.09628548,13154462882,redchilirestaurant.com,Yes,Yes,Yes,Yes,No,,,"Lunch, Dinner",Private Lot,Yes,No,Yes,Yes,Casual,Casual,Average,Full Bar,No,Free,Yes,Yes,Yes,,No,,,,,,,Yes,,,,11:00 AM,10:00 PM,11:00 AM,10:00 PM,11:00 AM,10:00 PM,11:00 AM,10:00 PM,11:00 AM,10:30 PM,11:00 AM,10:30 PM,11:30 AM,10:00 PM,49,18,8,10,10
52,Steve's Restaurant,Restaurant,Dive Bars,Mexican,,4.304347826,23,30,11,"401 Milton Ave, Syracuse, NY 13204",401 Milton Ave,Syracuse,NY,13204,43.050021,-76.18844,13154683380,,Yes,No,Yes,No,No,No,,Dinner,,No,,Yes,Yes,Casual,,Average,Full Bar,No,No,Yes,Yes,,No,,No,No,No,"Thu, Fri",No,,,,,,11:00 AM,12:00 AM,11:00 AM,12:00 AM,11:00 AM,12:00 AM,11:00 AM,12:00 AM,11:00 AM,2:00 AM,11:00 AM,2:00 AM,11:00 AM,10:00 PM,16,3,1,1,2
53,Grotto,Restaurant,Italian,,,4.428571429,28,30,11,"101 S Main St, Syracuse, NY 13212",101 S Main St,Syracuse,NY,13212,43.1351933,-76.129669,13152148911,grottonorthsyracuse.com,Yes,No,Yes,Yes,No,,,Dinner,"Street, Private Lot",Yes,,Yes,Yes,Casual,,Average,Full Bar,Yes,No,Yes,Yes,Yes,,,,,,,,,,,,,11:30 AM,9:00 PM,11:30 AM,9:00 PM,11:30 AM,9:00 PM,11:30 AM,9:00 PM,11:30 AM,10:00 PM,4:00 PM,10:00 PM,,,16,8,4,0,0
54,Daniella's Steakhouse,Restaurant,Steakhouses,,,3.929824561,57,30,11,"670 State Fair Blvd, Syracuse, NY 13209",670 State Fair Blvd,Syracuse,NY,13209,43.082038,-76.2282479,13154719874,daniellassteakhouse.com,Yes,No,Yes,Yes,,,No,Dinner,Private Lot,No,Yes,No,Yes,Casual,,Average,Full Bar,Yes,Free,Yes,Yes,Yes,,No,,,,,,,,,,,11:00 AM,10:00 PM,11:00 AM,10:00 PM,11:00 AM,10:00 PM,11:00 AM,10:00 PM,11:00 AM,10:00 PM,4:30 AM,11:00 PM,4:30 AM,9:00 PM,30,10,5,7,5
55,1060 Restaurant,Restaurant,American (New),,,3.675,40,30,11,"1060 E Genesee St, Syracuse, NY 13210",1060 E Genesee St,Syracuse,NY,13210,43.0467378,-76.1354846,13154769000,1060restaurant.com,Yes,No,Yes,Yes,,,,"Breakfast, Dinner",Private Lot,Yes,Yes,Yes,Yes,Casual,Intimate,Quiet,Full Bar,Yes,Free,Yes,Yes,Yes,,,,,,,,,,,,,6:30 AM,11:00 AM,6:30 AM,11:00 AM,6:30 AM,11:00 AM,6:30 AM,11:00 AM,6:30 AM,11:00 AM,6:30 AM,2:00 PM,7:30 AM,2:00 PM,12,15,3,8,2
57,Roji Tea Lounge,Restaurant,Bubble Tea,Coffee & Tea,Asian Fusion,4.428571429,84,30,11,"108 E Washington St\nSte 2, Syracuse, NY 13202",108 E Washington St\nSte 2,Syracuse,NY,13202,43.04949745,-76.15120468,13154280844,,No,Yes,Yes,Yes,Yes,,,,Street,Yes,Yes,No,Yes,Casual,,,,No,Free,No,,,,,,,,,,Yes,,,,,12:00 PM,12:00 AM,12:00 PM,12:00 AM,12:00 PM,12:00 AM,12:00 PM,12:00 AM,12:00 PM,12:00 AM,12:00 PM,12:00 AM,12:00 PM,12:00 AM,49,25,7,3,0
58,Asti,Restaurant,Italian,,,3.746835443,79,30,11,"411 N Salina St, Syracuse, NY 13203",411 N Salina St,Syracuse,NY,13203,43.056204,-76.1524042,13154781039,asticaffe.com,Yes,No,Yes,Yes,,,,"Lunch, Dinner",Street,Yes,No,Yes,Yes,Casual,,Average,Full Bar,Yes,No,No,Yes,Yes,,,,,,,,,,,,,11:00 AM,3:00 PM,11:00 AM,3:00 PM,11:00 AM,3:00 PM,11:00 AM,3:00 PM,11:00 AM,3:00 PM,12:00 PM,3:00 PM,,,32,24,4,9,10
59,Strong Hearts On The Hill,Restaurant,Cafes,Vegan,Vegetarian,4.523809524,21,10,0,"720 University Ave, Syracuse, NY 13210",720 University Ave,Syracuse,NY,13210,43.04204535,-76.13466378,13154785500,strongheartsoth.com,No,No,Yes,Yes,No,No,No,Lunch,"Garage, Street, Private Lot",Yes,Yes,No,No,Casual,,Average,No,No,No,No,No,No,,No,,,,,,,,,,,8:00 AM,9:00 PM,8:00 AM,9:00 PM,8:00 AM,9:00 PM,8:00 AM,9:00 PM,8:00 AM,7:00 PM,11:00 AM,5:00 PM,11:00 AM,5:00 PM,12,8,1,0,0
60,Calios,Restaurant,Barbeque,Burgers,Mexican,3.272727273,11,10,0,"123 Marshall St, Syracuse, NY 13210",123 Marshall St,Syracuse,NY,13210,43.0417946,-76.136096,13154269664,caliosonline.com,No,Yes,Yes,Yes,,,,,,No,,Yes,No,Casual,,Loud,No,No,,Yes,No,,,,,,,,,,,,,No,4:00 PM,4:00 AM,4:00 PM,4:00 AM,4:00 PM,4:00 AM,4:00 PM,4:00 AM,4:00 PM,4:00 AM,4:00 PM,4:00 AM,4:00 PM,4:00 AM,2,5,1,0,3
61,Good To Go - An Italian American Cafe,Restaurant,Italian,,,5,4,10,0,"725 Irving Ave, Syracuse, NY 13210",725 Irving Ave,Syracuse,NY,13210,43.0416512,-76.1376202,13154241169,,,No,,Yes,,,,,,,,Yes,Yes,,,,,,,,No,,,,,,,,,,,,,,6:30 AM,3:00 PM,6:30 AM,3:00 PM,6:30 AM,3:00 PM,6:30 AM,3:00 PM,6:30 AM,3:00 PM,,,,,4,0,0,0,0
62,Faegan's Cafe & Pub,Restaurant,Pubs,American (Traditional),,3.344444444,90,30,11,"734 S Crouse Ave, Syracuse, NY 13210",734 S Crouse Ave,Syracuse,NY,13210,43.0417812,-76.1369557,13154724721,faeganspub.com,No,No,Yes,Yes,,,,Lunch,Street,Yes,Yes,No,Yes,Casual,Casual,Loud,Full Bar,Yes,No,Yes,Yes,No,No,,No,No,Yes,"Wed, Thu, Sat",Outdoor Area / Patio Only,,,DJ,,,11:00 AM,9:00 PM,11:00 AM,9:00 PM,11:00 AM,9:00 PM,11:00 AM,10:00 PM,11:00 AM,10:00 PM,12:00 PM,10:00 PM,2:00 PM,8:00 PM,16,31,23,8,12
63,The 317 At Montgomery,Restaurant,American (New),,,3.708333333,48,60,31,"317 Montgomery St, Syracuse, NY 13202",317 Montgomery St,Syracuse,NY,13202,43.048061,-76.148809,13152144267,317syr.com,Yes,No,Yes,Yes,,,,Dinner,Street,No,Yes,No,Yes,Casual,Intimate,Average,Full Bar,Yes,Free,No,Yes,Yes,,,,,,,,,,,,,,,11:30 AM,2:30 PM,11:30 AM,2:30 PM,11:30 AM,2:30 PM,11:30 AM,2:30 PM,5:00 PM,10:00 PM,,,22,9,5,5,7
64,Polonaise,Restaurant,"Beer, Wine & Spirits",Delis,Vegetarian,4.833333333,12,10,0,"3006 Erie Blvd, Syracuse, NY 13224",3006 Erie Blvd,Syracuse,NY,13224,43.0552815,-76.0867957,13153994694,polonaisecny.com,Yes,Yes,Yes,Yes,,,No,,Private Lot,Yes,Yes,No,No,Casual,,Quiet,Beer & Wine Only,Yes,Free,No,No,Yes,,No,,,,,,,,,,,12:00 PM,8:00 PM,10:00 AM,8:00 PM,10:00 AM,8:00 PM,10:00 AM,8:00 PM,10:00 AM,8:00 PM,10:00 AM,8:00 PM,10:00 AM,4:00 PM,11,0,1,0,0
65,Rise N Shine Diner,Restaurant,Diners,Burgers,Breakfast & Brunch,4.371134021,97,10,0,"6393 Thompson Rd, Syracuse, NY 13206",6393 Thompson Rd,Syracuse,NY,13206,43.0806958,-76.0893868,13154325510,risenshinediner.com,Yes,No,Yes,Yes,No,,,"Breakfast, Lunch",Private Lot,Yes,Yes,Yes,Yes,Casual,Casual,Average,No,Yes,Free,Yes,Yes,Yes,,,,,,,,,,,,No,6:00 AM,2:00 PM,6:00 AM,2:00 PM,6:00 AM,2:00 PM,6:00 AM,2:00 PM,6:00 AM,2:00 PM,6:00 AM,2:00 PM,6:00 AM,2:00 PM,58,26,7,3,3
66,BBQ House,Restaurant,Barbeque,Chinese,,3.619047619,21,10,0,"725 E Fayette St, Syracuse, NY 13210",725 E Fayette St,Syracuse,NY,13210,43.048801,-76.1401209,13154228880,,No,Yes,Yes,Yes,,,,,,No,,Yes,Yes,Casual,,Quiet,Beer & Wine Only,No,,No,No,,,,,,,,,,,,,,11:00 AM,11:00 PM,11:00 AM,11:00 PM,11:00 AM,11:00 PM,11:00 AM,11:00 PM,11:00 AM,12:00 AM,11:00 AM,12:00 AM,12:00 PM,11:00 PM,10,2,4,1,4
67,Royal Indian Grill,Restaurant,Indian,,,4.166666667,6,30,11,"147 Marshall St, Syracuse, NY 13210",147 Marshall St,Syracuse,NY,13210,43.04163517,-76.1356065,13154255444,suroyalindiangrill.com,,Yes,Yes,,,,,,,,,Yes,Yes,,,,,,,,,,,,,,,,,,,,,,11:30 AM,4:00 PM,11:30 AM,4:00 PM,11:30 AM,4:00 PM,11:30 AM,4:00 PM,11:30 AM,4:00 PM,11:30 AM,4:00 PM,11:30 AM,4:00 PM,4,1,0,0,1
68,Angotti's Family Restaurant,Restaurant,Italian,,,4.230769231,26,30,11,"725 Burnet Ave, Syracuse, NY 13203",725 Burnet Ave,Syracuse,NY,13203,43.0522579,-76.1311003,13154728403,,Yes,No,Yes,Yes,,,,Dinner,Street,No,Yes,Yes,Yes,Casual,Casual,Average,Beer & Wine Only,No,No,Yes,Yes,Yes,,,,,,,,,,,,,,,11:00 AM,3:00 PM,11:00 AM,3:00 PM,11:00 AM,9:00 PM,11:00 AM,10:00 PM,12:00 PM,10:00 PM,,,15,6,3,0,2
69,Cathy's Corner Cafe,Restaurant,Barbeque,Breakfast & Brunch,Cafes,3.888888889,9,999,61,"929 Avery Ave, Syracuse, NY 13204",929 Avery Ave,Syracuse,NY,13204,43.054999,-76.196944,13154796990,cathyscornercafe.com,,,,Yes,,,,,,,,,,,,,,,,,Yes,Yes,,,,,,,,,,,,,9:00 AM,9:00 PM,9:00 AM,9:00 PM,9:00 AM,9:00 PM,9:00 AM,9:00 PM,4:00 PM,9:00 PM,4:00 PM,9:00 PM,,,6,0,1,0,2
70,New York Style Pizza and Diner,Restaurant,Diners,Pizza,Chicken Wings,4.24,25,10,0,"549 E Brighton Ave, Syracuse, NY 13210",549 E Brighton Ave,Syracuse,NY,13210,43.0119681,-76.134308,13152143303,nystylepizzaanddiner.com,No,Yes,Yes,Yes,No,,,"Breakfast, Lunch",Private Lot,Yes,,Yes,Yes,Casual,Casual,Average,No,No,Paid,Yes,Yes,No,,,,,,,,,,,,,11:30 AM,9:00 PM,11:30 AM,9:00 PM,11:30 AM,9:00 PM,11:30 AM,9:00 PM,11:30 AM,10:00 PM,4:00 PM,9:00 PM,12:00 PM,8:00 PM,17,2,3,1,2
71,Francesca's Cucina,Restaurant,Italian,,,3.683333333,120,30,11,"545 N Salina St, Syracuse, NY 13208",545 N Salina St,Syracuse,NY,13208,43.0585048,-76.1523328,13154251556,francescas-cucina.com,Yes,No,Yes,Yes,,,,Dinner,Street,No,Yes,No,Yes,Casual,Classy,Average,Full Bar,Yes,No,Yes,Yes,Yes,,,,,,,,,,,,,11:00 AM,2:30 PM,11:00 AM,2:30 PM,11:00 AM,2:30 PM,11:00 AM,2:30 PM,11:00 AM,2:30 PM,11:00 AM,2:30 PM,11:00 AM,2:30 PM,49,32,9,12,18
72,Kelley's Bar and Restaurant,Restaurant,Salad,Bars,American (Traditional),3.921052632,38,30,11,"5076 Velasko Rd, Syracuse, NY 13215",5076 Velasko Rd,Syracuse,NY,13215,43.016056,-76.184075,13154786773,kelleysbarandrestaurant.com,Yes,No,Yes,Yes,No,,,Dinner,Private Lot,Yes,Yes,Yes,Yes,Casual,Casual,Average,Full Bar,No,Free,Yes,Yes,Yes,,,,Yes,Yes,,,,,,,,11:30 AM,10:00 PM,11:30 AM,10:00 PM,11:30 AM,10:00 PM,11:30 AM,10:00 PM,11:30 AM,11:00 PM,11:30 AM,10:00 PM,,,15,12,7,1,3
73,Bamboo House Asian Restaurant,Restaurant,Asian Fusion,Chinese,Japanese,4.3,50,30,11,"252 W Genesee St, Syracuse, NY 13202",252 W Genesee St,Syracuse,NY,13202,43.0519363,-76.1547348,13154248800,bamboohousesyracuse.com,No,Yes,Yes,Yes,,,,"Lunch, Dinner",Street,No,,Yes,Yes,Casual,"Divey, Casual",Quiet,Beer & Wine Only,No,No,No,Yes,No,,,,,,,,,,,,,11:00 AM,11:00 PM,11:00 AM,11:00 PM,11:00 AM,11:00 PM,11:00 AM,11:00 PM,11:00 AM,11:00 PM,12:00 PM,11:00 PM,4:00 PM,10:00 PM,27,16,4,1,2
74,Bleu Monkey Cafe,Restaurant,Sushi Bars,Japanese,,3.294117647,85,30,11,"163 Marshall St, Syracuse, NY 13210",163 Marshall St,Syracuse,NY,13210,43.0418278,-76.1351691,13154740099,bleumonkeycafepickup.eat24hou…,No,Yes,Yes,Yes,No,,,"Lunch, Dinner",Street,Yes,Yes,Yes,Yes,Casual,Casual,Average,Beer & Wine Only,Yes,No,No,Yes,Yes,,,,,,,,,,,,,11:00 AM,11:00 PM,11:00 AM,11:00 PM,11:00 AM,11:00 PM,11:00 AM,11:00 PM,11:00 AM,11:00 PM,12:00 PM,11:00 PM,12:00 PM,11:00 PM,17,23,24,10,11
75,Maxwells,Restaurant,Cocktail Bars,American (New),,3.923076923,26,30,11,"122 E Genesee St, Syracuse, NY 13202",122 E Genesee St,Syracuse,NY,13202,43.04986031,-76.15013506,13152996633,maxwellssyracuse.com,Yes,No,Yes,Yes,No,,,,,Yes,,No,Yes,Casual,,Average,Full Bar,Yes,Free,Yes,Yes,,No,,No,No,Yes,,No,,,,,,4:00 PM,12:00 AM,4:00 PM,12:00 AM,4:00 PM,12:00 AM,4:00 PM,12:00 AM,4:00 PM,2:00 AM,4:00 PM,2:00 AM,,,13,5,4,1,3
76,Abis's African Restaurant,Restaurant,African,,,4,3,999,61,"717 N Salina St, Syracuse, NY 13208",717 N Salina St,Syracuse,NY,13208,43.060712,-76.153659,13152145923,abisafricanrestaurant.com,Yes,Yes,Yes,Yes,,,,,,Yes,Yes,Yes,Yes,,,,No,Yes,Free,Yes,Yes,Yes,,,,,,,,,,,,,11:00 AM,8:00 PM,11:00 AM,8:00 PM,11:00 AM,8:00 PM,11:00 AM,8:00 PM,11:00 AM,9:00 PM,11:00 AM,9:00 PM,,,0,3,0,0,0
77,San Miguel Mexican Restaurante,Restaurant,Mexican,,,3.890625,64,30,11,"425 N State St, Syracuse, NY 13203",425 N State St,Syracuse,NY,13203,43.05492205,-76.15055858,13158830551,sanmiguelmexican.com,Yes,Yes,Yes,Yes,No,,,Dinner,Private Lot,No,,Yes,Yes,Casual,Casual,Average,Full Bar,No,,Yes,Yes,Yes,,,,,,,,,,,,,11:00 AM,9:00 PM,11:00 AM,9:00 PM,11:00 AM,9:00 PM,11:00 AM,9:00 PM,11:00 AM,10:00 PM,11:00 AM,10:00 PM,11:00 AM,8:00 PM,32,14,6,3,9
78,Blarney Stone,Restaurant,Pubs,Chicken Wings,American (Traditional),4.211764706,85,10,0,"314 Avery Ave, Syracuse, NY 13204",314 Avery Ave,Syracuse,NY,13204,43.048402,-76.191524,13154879675,blarneystonesyr.com,No,No,Yes,No,No,No,,"Lunch, Dinner",Street,Yes,,No,Yes,Casual,Casual,Loud,Full Bar,Yes,No,Yes,No,No,No,,Yes,No,Yes,"Thu, Fri, Sat",Outdoor Area / Patio Only,,,,,,11:00 AM,12:00 AM,11:00 AM,12:00 AM,11:00 AM,12:00 AM,11:00 AM,12:00 AM,11:00 AM,12:00 AM,11:00 AM,1:00 AM,11:00 AM,12:00 AM,42,31,4,4,4
79,Pascale Italian Bistro,Restaurant,Italian,Burgers,Seafood,3.857142857,14,30,11,"800 Nottingham Rd, Syracuse, NY 13224",800 Nottingham Rd,Syracuse,NY,13224,43.020227,-76.105759,13154468511,pascaledrumlins.com,Yes,No,Yes,Yes,No,,No,,Private Lot,Yes,Yes,Yes,Yes,Casual,,,Full Bar,Yes,Free,Yes,Yes,Yes,,,,,,,,,,,,No,,,4:00 PM,9:30 PM,4:00 PM,9:30 PM,4:00 PM,9:30 PM,4:00 PM,9:30 PM,4:00 PM,9:30 PM,,,6,5,0,1,2
80,Delmonico's Italian Steakhouse,Restaurant,Italian,Steakhouses,,3.663265306,98,30,11,"2950 Erie Blvd E, Syracuse, NY 13224",2950 Erie Blvd E,Syracuse,NY,13224,43.0549118,-76.0883987,13154451111,delmonicositaliansteakhouse.c…,Yes,No,Yes,Yes,,,,Dinner,Private Lot,Yes,Yes,Yes,Yes,Casual,Casual,Average,Full Bar,No,No,Yes,Yes,Yes,,,,,,,,,,,,,4:00 PM,10:30 PM,4:00 PM,10:30 PM,4:00 PM,10:30 PM,4:00 PM,10:30 PM,4:00 PM,11:30 PM,1:00 PM,11:30 PM,12:00 PM,10:00 PM,29,36,14,9,10
81,Inn of the Seasons,Restaurant,American (Traditional),Venues & Event Spaces,Bars,4.5,10,30,11,"4311 W Seneca Tpke, Syracuse, NY 13215",4311 W Seneca Tpke,Syracuse,NY,13215,42.995257,-76.215963,13154924001,innoftheseasons.com,Yes,No,,Yes,,,,,,Yes,,Yes,Yes,Casual,,Quiet,Full Bar,No,No,No,Yes,,No,,No,No,,,No,,,,,,,,4:00 PM,10:00 PM,4:00 PM,10:00 PM,4:00 PM,10:00 PM,4:00 PM,11:00 PM,4:00 PM,11:00 PM,12:00 PM,8:00 PM,7,1,2,0,0
82,Ale ‘n' Angus Pub,Restaurant,Pubs,American (Traditional),,4.08,25,30,11,"238 Harrison St, Syracuse, NY 13202",238 Harrison St,Syracuse,NY,13202,43.0442478,-76.14906704,13154269672,alenanguspub.com,Yes,No,Yes,Yes,,,,Lunch,Street,Yes,No,Yes,Yes,Casual,Casual,Average,Full Bar,No,No,Yes,Yes,Yes,No,,No,No,Yes,"Wed, Fri, Sat",No,,,,,,11:00 AM,8:00 PM,11:00 AM,8:00 PM,11:00 AM,8:00 PM,11:00 AM,8:00 PM,11:00 AM,9:00 PM,,,,,13,7,1,2,2
83,Pronto Joey's,Restaurant,Italian,,,3.885714286,35,30,11,"6594 Thompson Rd, Syracuse, NY 13206",6594 Thompson Rd,Syracuse,NY,13206,43.0903598,-76.0919104,13154320620,joeysitalianrestaurant.com,Yes,No,Yes,Yes,,,,"Dinner, Dessert",Private Lot,Yes,No,Yes,Yes,Casual,Casual,Quiet,Full Bar,No,No,No,Yes,Yes,,,,,,,,,,,,,11:00 AM,10:00 PM,11:00 AM,10:00 PM,11:00 AM,10:00 PM,11:00 AM,10:00 PM,11:00 AM,10:00 PM,5:00 PM,11:00 PM,4:00 PM,9:00 PM,14,11,4,4,2
84,Tilted Kilt Pub & Eatery,Restaurant,Pubs,Sports Bars,American (Traditional),2.102564103,39,30,11,"3019 Erie Blvd E, Syracuse, NY 13224",3019 Erie Blvd E,Syracuse,NY,13224,43.057384,-76.08574,13154494444,tiltedkilt.com,No,No,Yes,Yes,,,,Late Night,,Yes,,No,Yes,Casual,Casual,Average,Full Bar,Yes,Free,Yes,Yes,No,No,,Yes,No,Yes,,Outdoor Area / Patio Only,,,,,,11:00 AM,1:00 AM,11:00 AM,1:00 AM,11:00 AM,1:00 AM,11:00 AM,1:00 AM,11:00 AM,2:00 AM,11:00 AM,2:00 AM,11:00 AM,2:00 AM,2,4,9,5,19
85,Koinonia Organic Juice Bar Cafe,Restaurant,Juice Bars & Smoothies,Cafes,,4.75,4,10,0,"126 Dell St, Syracuse, NY 13210",126 Dell St,Syracuse,NY,13210,43.04156995,-76.11999617,13157416516,,No,Yes,Yes,Yes,No,,,,,Yes,,Yes,Yes,Casual,,Quiet,No,Yes,Free,Yes,No,Yes,,,,,,,,,,,,,10:00 AM,8:00 PM,10:00 AM,8:00 PM,10:00 AM,8:00 PM,10:00 AM,8:00 PM,10:00 AM,8:00 PM,10:00 AM,8:00 PM,,,3,1,0,0,0
86,Mission Restaurant,Restaurant,Mexican,Tex-Mex,,3.523809524,126,30,11,"304 E Onondaga St, Syracuse, NY 13202",304 E Onondaga St,Syracuse,NY,13202,43.0470761,-76.1486308,13154757344,themissionrestaurant.com,Yes,No,Yes,Yes,Yes,,,Dinner,Street,Yes,Yes,Yes,Yes,Casual,Casual,Average,Beer & Wine Only,No,No,No,Yes,Yes,,,,,,,,,,,,,11:30 AM,2:00 PM,11:30 AM,9:00 PM,11:30 AM,9:00 PM,11:30 AM,9:00 PM,11:30 AM,10:00 PM,5:00 PM,10:00 PM,11:00 AM,3:00 PM,34,37,26,19,10
87,King David's Restaurant,Restaurant,Middle Eastern,,,3.555555556,45,30,11,"129 Marshall St, Syracuse, NY 13210",129 Marshall St,Syracuse,NY,13210,43.0418324,-76.1358507,13154715000,kingdavids.com,No,Yes,Yes,Yes,No,,,Lunch,Street,No,Yes,Yes,Yes,Casual,Casual,Average,No,No,No,No,Yes,Yes,,,,,,,,,,,,,11:00 AM,9:00 PM,11:00 AM,9:00 PM,11:00 AM,9:00 PM,11:00 AM,9:00 PM,11:00 AM,9:00 PM,11:00 AM,9:00 PM,,,13,12,11,5,4
88,Original Grain,Restaurant,Cafeteria,Cafes,,3.230769231,39,30,11,"302 S Salina St, Syracuse, NY 13202",302 S Salina St,Syracuse,NY,13202,43.0485676,-76.1522483,13152995011,originalgrainsters.com,No,No,Yes,Yes,Yes,,No,"Brunch, Lunch",Street,Yes,Yes,Yes,Yes,Casual,"Hipster, Trendy",Loud,Beer & Wine Only,Yes,Free,No,No,Yes,,Yes,,,,,,,,,,,7:30 AM,9:00 PM,7:30 AM,9:00 PM,7:30 AM,9:00 PM,7:30 AM,9:00 PM,7:30 AM,9:00 PM,7:30 AM,9:00 PM,,,9,9,9,6,6
89,Koto Hibachi & Sushi,Restaurant,Japanese,Sushi Bars,Salad,3.439393939,66,30,11,"9331 Destiny Usa Dr, Syracuse, NY 13290",9331 Destiny Usa Dr,Syracuse,NY,13290,43.06975234,-76.17382989,13154795686,kotosyracuse.com,Yes,No,Yes,Yes,,,,"Lunch, Dinner",Private Lot,Yes,,Yes,Yes,Casual,Classy,Average,Full Bar,No,No,Yes,Yes,No,,,,,,,,,,,,,11:00 AM,9:30 PM,11:00 AM,9:30 PM,11:00 AM,9:30 PM,11:00 AM,9:30 PM,11:00 AM,10:30 PM,11:00 AM,10:30 PM,12:00 PM,7:00 PM,16,25,9,4,12
90,Dolce Vita,Restaurant,Italian,Pizza,Burgers,3.727272727,44,30,11,"907 E Genesee St, Syracuse, NY 13210",907 E Genesee St,Syracuse,NY,13210,43.047092,-76.1375073,13154754700,dolcevitabar.com,Yes,Yes,Yes,Yes,,,,"Lunch, Dinner","Street, Private Lot",Yes,Yes,Yes,Yes,Casual,Casual,Average,Full Bar,Yes,Free,Yes,Yes,Yes,,,,,,,,,,,Yes,No,11:00 AM,9:00 PM,11:00 AM,9:00 PM,11:00 AM,11:00 PM,11:00 AM,11:00 PM,11:00 AM,11:00 PM,3:30 PM,11:00 PM,,,19,12,2,4,7
91,Nibsy's Pub,Restaurant,Pubs,American (Traditional),,4.857142857,7,10,0,"201 Ulster St, Syracuse, NY 13204",201 Ulster St,Syracuse,NY,13204,43.047872,-76.186779,13154768423,nibsyspub.com,No,No,No,Yes,,,,,Private Lot,Yes,Yes,No,Yes,Casual,,,Full Bar,Yes,Free,Yes,No,Yes,No,No,,No,No,,Outdoor Area / Patio Only,,,Juke Box,,,11:00 AM,2:00 AM,11:00 AM,2:00 AM,11:00 AM,2:00 AM,11:00 AM,2:00 AM,11:00 AM,2:00 AM,11:00 AM,2:00 AM,11:00 AM,2:00 AM,6,1,0,0,0
92,Namu,Restaurant,Japanese,Korean,Thai,3.15,20,30,11,"215 Walton St, Syracuse, NY 13202",215 Walton St,Syracuse,NY,13202,43.047787,-76.156222,13154750220,syracusesushi.com,Yes,No,Yes,Yes,,,,,,Yes,Yes,Yes,Yes,Casual,,Quiet,Beer & Wine Only,No,,No,Yes,Yes,,,,,,,,,,,,,11:30 AM,3:00 PM,11:30 AM,3:00 PM,11:30 AM,3:00 PM,11:30 AM,3:00 PM,11:30 AM,3:00 PM,12:00 PM,11:00 PM,,,4,7,1,4,4
93,Byblos Mediterranean Cafe,Restaurant,Mediterranean,Greek,,3.905405405,74,30,11,"223 N Clinton St, Syracuse, NY 13202",223 N Clinton St,Syracuse,NY,13202,43.0520044,-76.1536595,13154783333,byblossyr.com,Yes,Yes,Yes,Yes,,,,Lunch,Street,Yes,No,Yes,No,Casual,Casual,Average,No,Yes,Free,Yes,Yes,Yes,,,,,,,,,,,,,,,11:30 AM,3:00 PM,11:30 AM,3:00 PM,11:30 AM,3:00 PM,11:30 AM,3:00 PM,11:30 AM,9:00 PM,,,30,25,8,4,7
94,Picasso's Pastries and Cafe,Restaurant,Cafes,Bakeries,,4.72,50,10,0,"466 Westcott St, Syracuse, NY 13210",466 Westcott St,Syracuse,NY,13210,43.042107,-76.119679,13154741700,,No,No,Yes,Yes,No,,,"Breakfast, Dessert",Street,Yes,,Yes,Yes,Casual,Casual,Average,No,No,Free,No,No,Yes,,,,,,,,,,,,,,,7:00 AM,7:00 PM,7:00 AM,7:00 PM,7:00 AM,7:00 PM,7:00 AM,7:00 PM,8:00 AM,7:00 PM,8:00 AM,3:00 PM,39,10,0,0,1
95,Mizu Japanese Steakhouse,Restaurant,Japanese,Steakhouses,,3.945945946,37,30,11,"2841 Erie Blvd E, Syracuse, NY 13224",2841 Erie Blvd E,Syracuse,NY,13224,43.0556222,-76.0931719,13154455686,mizuus.com,Yes,No,Yes,Yes,,,,Dinner,Private Lot,No,,Yes,Yes,Casual,Casual,Average,Full Bar,No,No,Yes,Yes,No,,,,,,,,,,,,,11:00 AM,3:00 PM,11:00 AM,3:00 PM,11:00 AM,3:00 PM,11:00 AM,3:00 PM,11:00 AM,3:00 PM,12:00 PM,10:45 PM,12:00 PM,9:45 PM,17,10,4,3,3
96,Beer Belly Deli & Pub,Restaurant,American (New),Pubs,,3.789473684,76,30,11,"510 Westcott St, Syracuse, NY 13210",510 Westcott St,Syracuse,NY,13210,43.041547,-76.1197035,13152997533,beerbellywestcott.com,No,Yes,Yes,Yes,,,,"Lunch, Late Night",Street,Yes,,No,Yes,Casual,Casual,Loud,Beer & Wine Only,Yes,No,Yes,Yes,No,No,,No,No,Yes,Wed,Outdoor Area / Patio Only,,,,,,11:00 AM,2:00 AM,11:00 AM,2:00 AM,11:00 AM,2:00 AM,11:00 AM,2:00 AM,11:00 AM,2:00 AM,11:00 AM,2:00 AM,11:00 AM,2:00 AM,30,23,7,9,7
97,Gordon Biersch Brewery Restaurant,Restaurant,Breweries,American (New),Bars,3.640350877,114,30,11,"304 Hiawatha Blvd W\n#J101, Syracuse, NY 13208",304 Hiawatha Blvd W\n#J101,Syracuse,NY,13208,43.06750249,-76.17119183,13154780990,gordonbiersch.com,Yes,No,Yes,Yes,No,No,,"Lunch, Dinner",Private Lot,No,,Yes,Yes,Casual,Casual,Average,Full Bar,No,Free,Yes,Yes,No,No,,,No,Yes,,,,,,,,11:00 AM,10:00 PM,11:00 AM,11:00 PM,11:00 AM,11:00 PM,11:00 AM,11:00 PM,11:00 AM,12:00 AM,11:00 AM,12:00 AM,11:00 AM,10:00 PM,24,51,19,14,6
98,Taj Mahal Indian Palace,Restaurant,Indian,,,3.967032967,91,30,11,"3138 Erie Blvd E, Syracuse, NY 13214",3138 Erie Blvd E,Syracuse,NY,13214,43.0549728,-76.0785088,13154462229,tajmahalindianpalace.com,Yes,Yes,Yes,Yes,,,,"Lunch, Dinner",Private Lot,Yes,Yes,Yes,Yes,Casual,Casual,Quiet,Beer & Wine Only,No,Free,No,Yes,Yes,,,,,,,,,,,,,11:00 AM,2:30 PM,11:00 AM,2:30 PM,11:00 AM,2:30 PM,11:00 AM,2:30 PM,11:00 AM,2:30 PM,11:00 AM,2:30 PM,11:00 AM,2:30 PM,43,20,16,6,6
99,Asian Wok,Restaurant,Chinese,,,4.416666667,24,10,0,"3800 W Genesee St, Syracuse, NY 13219",3800 W Genesee St,Syracuse,NY,13219,43.0469982,-76.2399587,13154888838,,No,Yes,Yes,Yes,,,,Lunch,,,,Yes,Yes,Casual,,,,No,,Yes,,,,,,,,,,,,,,,11:00 AM,10:00 PM,11:00 AM,10:00 PM,11:00 AM,10:00 PM,11:00 AM,10:00 PM,11:00 AM,11:00 PM,11:00 AM,11:00 PM,12:00 PM,10:00 PM,16,5,1,1,1
100,Tonini's Pizzeria,Restaurant,Pizza,Sandwiches,Gluten-Free,4.636363636,33,30,11,"6059 E Taft Rd, Syracuse, NY 13212",6059 E Taft Rd,Syracuse,NY,13212,43.12501552,-76.10156,13154241313,toninispizzeriasyracuse.com,No,Yes,Yes,Yes,Yes,,,Lunch,Private Lot,Yes,Yes,Yes,Yes,Casual,Casual,Average,No,Yes,Free,No,Yes,Yes,,No,,,,,,,,,,,10:00 AM,9:00 PM,10:00 AM,9:00 PM,10:00 AM,9:00 PM,10:00 AM,9:00 PM,10:00 AM,10:00 PM,3:00 PM,10:00 PM,,,25,5,2,1,0
101,CJ's Seafoods,Restaurant,Seafood,,,4.666666667,6,10,0,"2012 Teall Ave, Syracuse, NY 13206",2012 Teall Ave,Syracuse,NY,13206,43.078967,-76.123142,13154639390,cjsseafoods.com,No,No,Yes,No,,,No,,Street,Yes,Yes,Yes,Yes,Casual,,Average,No,No,No,No,No,No,,No,,,,,,,,,,,,,,,,,,,8:30 AM,7:30 PM,,,,,5,0,1,0,0
102,Franco's Pizzeria & Deli,Restaurant,Pizza,Salad,Sandwiches,2.698630137,73,30,11,"901 E Genesee St, Syracuse, NY 13210",901 E Genesee St,Syracuse,NY,13210,43.0471884,-76.1375724,13154751100,francospizzeriaanddeli.com,No,Yes,Yes,Yes,,,,Late Night,Street,Yes,Yes,Yes,No,Casual,Divey,Average,No,No,No,Yes,Yes,Yes,,,,,,,,,Yes,,,,7:00 AM,3:00 AM,7:00 AM,3:00 AM,7:00 AM,3:00 AM,7:00 AM,3:00 AM,7:00 AM,3:00 AM,7:00 AM,3:00 AM,7:00 AM,3:00 PM,13,15,9,9,27
103,The Blue Tusk,Restaurant,Bars,American (Traditional),,3.698412698,126,30,11,"165 Walton St, Syracuse, NY 13202",165 Walton St,Syracuse,NY,13202,43.04802,-76.15517,13154721934,bluetusk.com,No,No,Yes,Yes,,,,"Dinner, Late Night",Street,Yes,Yes,No,Yes,Casual,Casual,Loud,Full Bar,Yes,No,Yes,No,No,No,,No,No,Yes,"Thu, Fri, Sat",Outdoor Area / Patio Only,,,,,,11:00 AM,2:00 AM,11:00 AM,2:00 AM,11:00 AM,2:00 AM,11:00 AM,2:00 AM,11:00 AM,2:00 AM,11:00 AM,2:00 AM,,,32,55,18,11,10
104,Redfield's,Restaurant,American (New),Seafood,Steakhouses,2.5,10,30,11,"701 E Genesee St, Syracuse, NY 13210",701 E Genesee St,Syracuse,NY,13210,43.0476016,-76.1418303,13157031900,cpsyracuse.com,Yes,No,Yes,Yes,No,No,No,,"Garage, Street, Private Lot",Yes,Yes,Yes,Yes,Casual,,,Full Bar,No,Free,Yes,Yes,Yes,,Yes,,,,,,,,,,,6:30 AM,2:00 PM,6:30 AM,2:00 PM,6:30 AM,2:00 PM,6:30 AM,2:00 PM,6:30 AM,2:00 PM,7:00 AM,2:00 PM,7:00 AM,2:00 PM,1,2,2,1,4
105,Brooklyn Pickle,Restaurant,Sandwiches,,,3.836363636,55,10,0,"1600 W Genesee St, Syracuse, NY 13204",1600 W Genesee St,Syracuse,NY,13204,43.0526395,-76.1858764,13154878000,brooklynpickle.com,No,Yes,Yes,Yes,,,,Lunch,Private Lot,Yes,,Yes,Yes,Casual,Casual,Average,No,Yes,Free,No,No,Yes,,,,,,,,,,,,,9:00 AM,8:00 PM,9:00 AM,8:00 PM,9:00 AM,8:00 PM,9:00 AM,8:00 PM,9:00 AM,8:00 PM,9:00 AM,8:00 PM,,,18,24,4,4,5
106,Suzie's Lakeland Diner,Restaurant,Diners,,,4.571428571,7,10,0,"764 State Fair Blvd, Syracuse, NY 13209",764 State Fair Blvd,Syracuse,NY,13209,43.0863478,-76.2370022,13154689704,,No,No,Yes,Yes,,,,,,Yes,,Yes,Yes,Casual,,Average,No,Yes,No,Yes,Yes,,,,,,,,,,,,,,6:00 AM,2:00 PM,6:00 AM,2:00 PM,6:00 AM,2:00 PM,6:00 AM,2:00 PM,6:00 AM,7:00 PM,6:00 AM,2:00 PM,7:00 AM,2:00 PM,4,3,0,0,0
107,Finally Ours,Restaurant,Diners,Breakfast & Brunch,Sandwiches,4.641025641,39,30,11,"3788 W Seneca Turnpike, Syracuse, NY 13215",3788 W Seneca Turnpike,Syracuse,NY,13215,42.98880411,-76.25065803,13159286857,finallyoursdiner.com,No,No,Yes,Yes,No,,,"Breakfast, Brunch, Lunch",Private Lot,Yes,,Yes,Yes,Casual,Casual,Average,No,No,,Yes,Yes,No,,,,,,,,,,,,,,,6:00 AM,3:00 PM,6:00 AM,3:00 PM,6:00 AM,3:00 PM,6:00 AM,7:00 PM,6:00 AM,3:00 PM,6:00 AM,3:00 PM,29,7,2,1,0
108,Tony's Family Restaurant,Restaurant,American (Traditional),,,4.4,10,10,0,"3004 Burnet Ave, Syracuse, NY 13206",3004 Burnet Ave,Syracuse,NY,13206,43.0601738,-76.0954893,13154321030,tonysfamilyrestaurant.net/ind…,No,No,Yes,Yes,,,,Lunch,,,,Yes,Yes,Casual,,Quiet,Beer & Wine Only,No,,Yes,Yes,,,,,,,,,,,,,,,,,,,,,,,,,,,,7,1,1,1,0
109,Secret Garden Bl-Won,Restaurant,Korean,Japanese,,3.681818182,66,30,11,"2731 Erie Blvd E, Syracuse, NY 13224",2731 Erie Blvd E,Syracuse,NY,13224,43.0552537,-76.0970207,13154493333,,Yes,No,Yes,Yes,No,No,,Dinner,Private Lot,Yes,Yes,Yes,Yes,Casual,Casual,Average,Full Bar,No,No,No,Yes,Yes,,,,,,,,,,,,,11:30 AM,10:00 PM,11:30 AM,10:00 PM,11:30 AM,10:00 PM,11:30 AM,10:00 PM,11:30 AM,10:00 PM,11:30 AM,10:00 PM,11:30 AM,10:00 PM,14,31,13,2,6
110,Komachi,Restaurant,Japanese,,,3.2,20,30,11,"727 S Crouse Ave, Syracuse, NY 13210",727 S Crouse Ave,Syracuse,NY,13210,43.0421186,-76.1361176,,,No,Yes,Yes,Yes,,,,Lunch,Street,,Yes,Yes,Yes,Casual,,Quiet,Beer & Wine Only,No,No,Yes,Yes,,,,,,,,,,,,,,11:00 AM,9:00 PM,11:00 AM,9:00 PM,11:00 AM,9:00 PM,11:00 AM,9:00 PM,11:00 AM,9:00 PM,4:00 PM,9:00 PM,,,1,9,5,3,2
111,Asian Palace,Restaurant,Shanghainese,,,3.727272727,11,10,0,"1623-29 E Fayette St, Syracuse, NY 13210",1623-29 E Fayette St,Syracuse,NY,13210,43.048415,-76.121687,13154758888,asianpalaceny.com,Yes,Yes,,Yes,,,,,,Yes,,Yes,Yes,Casual,,Quiet,No,No,Free,No,Yes,,,,,,,,,,,,,,10:30 AM,11:00 PM,10:30 AM,11:00 PM,10:30 AM,11:00 PM,10:30 AM,11:00 PM,10:30 AM,11:00 PM,10:30 AM,11:00 PM,12:00 AM,11:30 PM,6,1,1,1,2
112,Prime Steak House,Restaurant,Steakhouses,,,3.033898305,59,60,31,"101 E Water St, Syracuse, NY 13202",101 E Water St,Syracuse,NY,13202,43.0505531,-76.1521726,13152998047,syrprime.com,Yes,No,No,Yes,No,,,Dinner,Street,Yes,Yes,No,Yes,Dressy,,Average,Full Bar,Yes,No,No,Yes,Yes,,,,,,,,,,,,,11:30 AM,2:00 PM,11:30 AM,2:00 PM,11:30 AM,2:00 PM,11:30 AM,2:00 PM,11:30 AM,2:00 PM,5:00 PM,11:00 PM,,,15,11,7,13,13
113,Sakana-Ya Sushi Bar,Restaurant,Sushi Bars,Japanese,,3.5,108,30,11,"215 Walton St\nSte 100, Syracuse, NY 13202",215 Walton St\nSte 100,Syracuse,NY,13202,43.047787,-76.156222,13154750117,syracusesushi.com,No,No,Yes,Yes,No,,,Dinner,Street,Yes,Yes,Yes,Yes,Casual,Trendy,Average,Beer & Wine Only,No,No,No,Yes,No,,,,,,,,,,,,,11:30 AM,10:00 PM,11:30 AM,3:00 PM,11:30 AM,3:00 PM,11:30 AM,3:00 PM,11:30 AM,3:00 PM,11:30 AM,3:00 PM,1:00 PM,9:00 PM,27,38,14,20,9
115,Manny's Cafe Restaurant,Restaurant,Coffee & Tea,Puerto Rican,,4.5,2,,,"523 Marcellus St, Syracuse, NY 13204",523 Marcellus St,Syracuse,NY,13204,43.0456289,-76.1666516,13156797550,,,Yes,Yes,Yes,,,,,,,,Yes,No,,,,,No,,,,,,,,,,,,,,,,,10:00 AM,8:00 PM,10:00 AM,8:00 PM,10:00 AM,8:00 PM,10:00 AM,8:00 PM,10:00 AM,8:00 PM,10:00 AM,8:00 PM,,,1,1,0,0,0
116,Texas Roadhouse,Restaurant,Barbeque,American (Traditional),Steakhouses,3.661290323,62,30,11,"3143 Erie Blvd E, Syracuse, NY 13214",3143 Erie Blvd E,Syracuse,NY,13214,43.0496809,-76.0715059,13154454086,texasroadhouse.com,No,No,Yes,Yes,,,,Dinner,Private Lot,Yes,No,Yes,Yes,Casual,Casual,Loud,Full Bar,No,No,Yes,Yes,No,,,,,,,,,,,,,4:00 PM,10:00 PM,4:00 PM,10:00 PM,4:00 PM,10:00 PM,4:00 PM,10:00 PM,4:00 PM,11:00 PM,11:30 AM,11:00 PM,11:30 AM,9:00 PM,21,17,12,6,6
117,Julie's Place Home of Karen's Catering,Restaurant,Italian,American (New),,3.8125,16,60,31,"770 James St, Syracuse, NY 13203",770 James St,Syracuse,NY,13203,43.0555631,-76.1402372,13154729528,juliesplacesyracuse.com,Yes,No,Yes,Yes,,,,,Private Lot,No,Yes,No,Yes,Casual,,Average,Full Bar,No,Free,Yes,Yes,Yes,,,,,,,,,,,,,11:30 AM,5:00 PM,11:30 AM,10:00 PM,11:30 AM,10:00 PM,11:30 AM,10:00 PM,11:30 AM,11:00 PM,11:30 AM,11:00 PM,5:00 PM,11:00 PM,6,7,0,0,3
118,Nestico's Restaurant,Restaurant,Diners,Breakfast & Brunch,,3.807692308,26,30,11,"412 N Main St, Syracuse, NY 13212",412 N Main St,Syracuse,NY,13212,43.1403636,-76.1277447,13154585188,nesticosrestaurant.com,Yes,No,Yes,Yes,,,,Dinner,Private Lot,Yes,,Yes,Yes,Casual,Casual,Average,Full Bar,Yes,Free,Yes,Yes,Yes,,,,,,,,,,,,,11:30 AM,9:00 PM,11:30 AM,9:00 PM,11:30 AM,9:00 PM,11:30 AM,9:00 PM,11:30 AM,10:00 PM,4:00 PM,10:00 PM,,,10,10,1,1,4
119,P.F. Chang's,Restaurant,Chinese,Gluten-Free,Asian Fusion,2.881578947,76,30,11,"306 Hiawatha Blvd W\nSpace H-111, Syracuse, NY 13204",306 Hiawatha Blvd W\nSpace H-111,Syracuse,NY,13204,43.067406,-76.1732,13154845159,pfchangs.com,Yes,No,Yes,Yes,,,,"Lunch, Dinner",Garage,No,,Yes,Yes,Casual,,Average,Full Bar,No,Free,No,Yes,No,,,,,,,,,,,,,11:00 AM,10:00 PM,11:00 AM,10:00 PM,11:00 AM,10:00 PM,11:00 AM,10:00 PM,11:00 AM,11:00 PM,11:00 AM,11:00 PM,11:00 AM,10:00 PM,9,23,9,20,15
120,The Cheesecake Factory,Restaurant,Desserts,American (Traditional),American (New),3.369565217,92,30,11,"306 Hiawatha Blvd W\nSpace J-112, Syracuse, NY 13290",306 Hiawatha Blvd W\nSpace J-112,Syracuse,NY,13290,43.06863966,-76.17098864,13154222559,thecheesecakefactory.com,Yes,No,Yes,Yes,No,,,"Brunch, Dessert",Private Lot,Yes,,Yes,Yes,Casual,Casual,Average,Full Bar,No,No,Yes,Yes,No,,,,,,,,,,,,,11:00 AM,11:00 PM,11:00 AM,11:00 PM,11:00 AM,11:00 PM,11:00 AM,11:00 PM,11:00 AM,12:30 AM,11:00 AM,12:30 AM,10:00 AM,11:00 PM,22,30,12,16,12
121,Middle Ages Brewing Company,Restaurant,Breakfast & Brunch,,,2.181818182,22,30,11,"Syracuse Hancock International Airport\n1000 Colonel Eileen Collins Blvd, Syracuse, NY 13212",Syracuse Hancock International Airport\n1000 Colonel Eileen Collins Blvd,Syracuse,NY,13212,43.11208731,-76.10921167,13154544330,syrairport.org/airport-guide/…,No,No,Yes,Yes,,,,,Garage,No,,Yes,Yes,Casual,,,Full Bar,No,Free,Yes,Yes,,,,,,,,,,,,,,8:00 AM,5:00 PM,8:00 AM,5:00 PM,8:00 AM,5:00 PM,8:00 AM,5:00 PM,8:00 AM,5:00 PM,8:00 AM,5:00 PM,8:00 AM,5:00 PM,3,2,2,4,11
122,Munjed's Mediterranean Restaurant & Lounge,Restaurant,Middle Eastern,Greek,Vegetarian,3.55,40,30,11,"505 Westcott St, Syracuse, NY 13210",505 Westcott St,Syracuse,NY,13210,43.0412681,-76.1190599,13154250366,munjeds.net,Yes,Yes,Yes,Yes,No,,,"Lunch, Dinner",Street,Yes,Yes,Yes,Yes,Casual,Casual,Average,Full Bar,Yes,Free,Yes,Yes,Yes,,,,,,,,,,,,,4:30 PM,9:00 PM,11:00 AM,2:30 PM,11:00 AM,2:30 PM,11:00 AM,2:30 PM,11:00 AM,2:30 PM,12:00 PM,10:00 PM,1:00 PM,8:00 PM,8,18,4,8,2
125,The Black Olive,Restaurant,Mediterranean,Greek,,3.571428571,42,30,11,"250 S Clinton St, Syracuse, NY 13202",250 S Clinton St,Syracuse,NY,13202,43.0482763,-76.1536938,13153995599,,Yes,No,Yes,Yes,,,,Dinner,Street,Yes,Yes,No,Yes,Casual,"Casual, Classy",Average,Full Bar,Yes,No,No,Yes,Yes,,,,,,,,,,,,,,,11:00 AM,10:00 PM,11:00 AM,10:00 PM,11:00 AM,10:00 PM,11:00 AM,2:00 AM,3:00 PM,2:00 AM,,,10,14,10,6,2
126,Jim's Fish Fry,Restaurant,Seafood,,,4.047619048,21,30,11,"1248 Wolf St, Syracuse, NY 13208",1248 Wolf St,Syracuse,NY,13208,43.0845414,-76.1531388,13154719755,,No,No,Yes,Yes,,,,"Lunch, Dinner",,Yes,,Yes,Yes,Casual,Divey,Quiet,Beer & Wine Only,No,No,Yes,Yes,,,,,,,,,,,,,,8:00 AM,9:00 PM,8:00 AM,9:00 PM,8:00 AM,9:00 PM,8:00 AM,9:00 PM,8:00 AM,9:00 PM,11:00 AM,9:00 PM,,,9,7,3,1,1
127,The Melting Pot,Restaurant,Fondue,,,3.434782609,23,60,31,"306 Hiawatha Blvd W\nSte H104, Syracuse, NY 13204",306 Hiawatha Blvd W\nSte H104,Syracuse,NY,13204,43.0686261,-76.1714246,13154716358,meltingpot.com,Yes,No,No,Yes,,,,,,No,,Yes,Yes,Casual,,Quiet,Full Bar,No,,No,Yes,No,,,,,,,,,,,,,12:00 PM,10:00 PM,12:00 PM,10:00 PM,12:00 PM,10:00 PM,12:00 PM,10:00 PM,12:00 PM,10:00 PM,12:00 PM,10:00 PM,12:00 PM,9:00 PM,9,4,2,4,4
128,Gino & Joe's Pizzeria & Restaurant,Restaurant,Pizza,,,3.80952381,21,30,11,"3811 Brewerton Rd, Syracuse, NY 13212",3811 Brewerton Rd,Syracuse,NY,13212,43.1195924,-76.1440115,13154521038,,No,Yes,Yes,Yes,,,,"Lunch, Dinner",Private Lot,No,,Yes,Yes,Casual,Casual,Very Loud,No,No,No,Yes,No,Yes,,,,,,,,,,,,,10:00 AM,10:30 PM,10:00 AM,10:30 PM,10:00 AM,10:30 PM,10:00 AM,10:30 PM,10:00 AM,11:30 PM,10:00 AM,11:30 PM,10:00 AM,10:30 PM,8,8,1,1,3
129,Shifty's,Restaurant,Chicken Wings,Music Venues,Dive Bars,4.133333333,45,10,0,"1401 Burnet Ave, Syracuse, NY 13206",1401 Burnet Ave,Syracuse,NY,13206,43.0551808,-76.1191062,13154740048,shiftysbar.com,No,No,Yes,Yes,,,,Late Night,Street,No,,No,Yes,Casual,Casual,Loud,Full Bar,Yes,No,Yes,No,,No,,Yes,No,Yes,"Thu, Fri, Sat",Outdoor Area / Patio Only,,,Live,,,11:00 AM,12:00 AM,11:00 AM,12:00 AM,11:00 AM,12:00 AM,11:00 AM,12:00 AM,11:00 AM,12:00 AM,12:00 PM,12:00 AM,12:00 PM,12:00 AM,23,13,4,2,3
130,Varsity Pizza,Restaurant,Pizza,Delis,American (Traditional),3.714285714,56,10,0,"802 S Crouse Ave, Syracuse, NY 13210",802 S Crouse Ave,Syracuse,NY,13210,43.041475,-76.1370309,13154781235,varsitysyracuse.com,No,Yes,Yes,Yes,No,,,"Lunch, Dinner",Street,Yes,Yes,Yes,Yes,Casual,Casual,Average,Beer & Wine Only,Yes,Free,Yes,No,Yes,,,,,,,,,,,,,9:00 AM,9:00 PM,9:00 AM,9:00 PM,9:00 AM,9:00 PM,9:00 AM,9:00 PM,9:00 AM,9:00 PM,11:00 AM,9:00 PM,12:00 PM,7:00 PM,17,22,6,6,5
131,The Pale and Bucket Pub,Restaurant,American (Traditional),Pubs,,3.705882353,17,30,11,"4744 Onondaga Blvd, Syracuse, NY 13219",4744 Onondaga Blvd,Syracuse,NY,13219,43.0330544,-76.1884772,13158026191,paleandbucket.com,No,No,Yes,Yes,,,,,,Yes,,Yes,Yes,Casual,Casual,Loud,Full Bar,Yes,Free,Yes,Yes,,No,,No,No,Yes,,No,,,,,,4:00 PM,12:00 AM,11:30 AM,12:00 AM,11:30 AM,12:00 AM,11:30 AM,12:00 AM,11:30 AM,2:00 AM,11:30 AM,2:00 AM,11:30 AM,12:00 AM,5,6,4,0,2
132,Liberty Deli,Restaurant,Delis,,,4.625,8,10,0,"323 Irving Ave, Syracuse, NY 13210",323 Irving Ave,Syracuse,NY,13210,43.0475639,-76.1377214,13154768214,,No,,Yes,Yes,,,,,,No,,Yes,Yes,Casual,,Quiet,No,No,No,No,Yes,Yes,,,,,,,,,,,,,7:00 AM,6:30 PM,7:00 AM,6:30 PM,7:00 AM,6:30 PM,7:00 AM,6:30 PM,7:00 AM,6:30 PM,9:00 AM,3:00 PM,,,5,3,0,0,0
133,Sorrento's,Restaurant,American (New),Italian,,3.636363636,22,30,11,"3770 Brewerton Rd, Syracuse, NY 13212",3770 Brewerton Rd,Syracuse,NY,13212,43.11801147,-76.14354706,13153784386,,Yes,No,Yes,Yes,,,,,,No,,Yes,Yes,Casual,Casual,Average,No,No,,Yes,Yes,Yes,,,,,,,,,,,,,11:00 AM,9:00 PM,11:00 AM,9:00 PM,11:00 AM,9:00 PM,11:00 AM,9:00 PM,11:00 AM,9:00 PM,4:00 PM,9:00 PM,,,9,3,5,3,2
134,Moghul Indian Grill,Restaurant,Indian,,,3.5,12,30,11,"121 Marshall St, Syracuse, NY 13210",121 Marshall St,Syracuse,NY,13210,43.04166757,-76.13608874,13159918056,,No,Yes,Yes,Yes,,,,,,,,Yes,No,Casual,,Quiet,,,,,,,,,,,,,,,,,,,11:00 AM,10:00 PM,11:00 AM,10:00 PM,11:00 AM,10:00 PM,11:00 AM,10:00 PM,11:00 AM,10:00 PM,11:00 AM,10:00 PM,11:00 AM,10:00 PM,5,2,2,0,3
135,Avocadough,Restaurant,Bakeries,Gluten-Free,,4,3,,,,,Syracuse,NY,13212,43.1270971,-76.1030007,13153733945,avocadough.com,,,,,,,,,,,,,,,,,,,,,,,,,,,,,,,,,,,9:00 AM,5:00 PM,9:00 AM,5:00 PM,9:00 AM,5:00 PM,9:00 AM,5:00 PM,9:00 AM,5:00 PM,7:30 AM,1:30 PM,,,1,1,1,0,0
137,Soup R Salads,Restaurant,Soup,Sandwiches,Salad,4.666666667,6,10,0,"308 S Warren St, Syracuse, NY 13202",308 S Warren St,Syracuse,NY,13202,43.0483129,-76.1508301,13152144569,,No,Yes,Yes,Yes,,,,,,Yes,,Yes,Yes,Casual,,Loud,No,No,,No,No,,,,,,,,,,,,,,8:00 AM,10:30 AM,8:00 AM,10:30 AM,8:00 AM,10:30 AM,8:00 AM,10:30 AM,8:00 AM,10:30 AM,,,,,4,2,0,0,0
138,Broadway Cafe & Arctic Island,Restaurant,Ice Cream & Frozen Yogurt,American (New),Sandwiches,4.666666667,24,10,0,"210 W Seneca Tpke, Syracuse, NY 13205",210 W Seneca Tpke,Syracuse,NY,13205,43.001637,-76.14729,13154691234,thebroadwaycafe.com,No,Yes,Yes,Yes,Yes,,No,Dessert,Private Lot,Yes,Yes,Yes,Yes,Casual,Casual,Average,No,Yes,Free,No,No,Yes,,No,,,,,,,,,,,6:00 AM,9:00 PM,6:00 AM,9:00 PM,6:00 AM,9:00 PM,6:00 AM,9:00 PM,6:00 AM,9:00 PM,8:00 AM,9:00 PM,8:00 AM,9:00 PM,18,4,2,0,0
139,Grimaldi's Luna Park,Restaurant,Italian,Cafes,,4.142857143,77,30,11,"6430 Yorktown Cir, East Syracuse, NY 13057",6430 Yorktown Cir,East Syracuse,NY,13057,43.0917876,-76.0869827,13154324614,grimaldislunapark.com,Yes,No,Yes,Yes,No,,,Dinner,Private Lot,Yes,Yes,Yes,Yes,Casual,Casual,Average,Full Bar,No,No,Yes,Yes,Yes,,,,,,,,,,,,,5:00 PM,10:00 PM,11:30 AM,2:00 PM,11:30 AM,2:00 PM,11:30 AM,2:00 PM,11:30 AM,2:00 PM,5:00 PM,10:00 PM,4:00 PM,9:00 PM,35,29,5,5,3
140,The Pie Shack,Restaurant,Pizza,Italian,Salad,4.285714286,7,10,0,"1210 Willis Ave, Syracuse, NY 13204",1210 Willis Ave,Syracuse,NY,13204,43.0596062,-76.1969815,13154680330,pieshacksyracuse.com,No,Yes,Yes,Yes,,,,,,Yes,,Yes,No,Casual,,Very Loud,,No,,,,,,,,,,,,,,,,,11:00 AM,10:00 PM,11:00 AM,10:00 PM,11:00 AM,10:00 PM,11:00 AM,10:00 PM,11:00 AM,11:00 PM,12:00 PM,11:00 PM,12:00 PM,9:00 PM,5,0,1,1,0
141,Di Lauro's Bakery & Pizza,Restaurant,Bakeries,Pizza,,4.928571429,14,10,0,"502 E Division St, Syracuse, NY 13208",502 E Division St,Syracuse,NY,13208,43.061518,-76.150417,13154224426,dilaurosbakeryandpizza.com,No,Yes,Yes,Yes,,,,Brunch,Street,Yes,Yes,Yes,No,Casual,,Quiet,No,No,No,No,No,Yes,,,,,,,,,,,,,7:00 AM,7:00 PM,7:00 AM,7:00 PM,7:00 AM,7:00 PM,7:00 AM,7:00 PM,7:00 AM,7:00 PM,6:30 AM,7:00 PM,6:30 AM,6:00 PM,13,1,0,0,0
142,Jerk Hut,Restaurant,Caribbean,,,4.222222222,9,10,0,"440 S Ave, Syracuse, NY 13204",440 S Ave,Syracuse,NY,13204,43.034758,-76.159182,13154785303,bongojerkhut.com,No,No,Yes,Yes,,,,Lunch,Private Lot,No,,Yes,Yes,Casual,,Average,No,No,No,Yes,No,Yes,,,,,,,,,,,,,11:00 AM,9:00 PM,11:00 AM,9:00 PM,11:00 AM,9:00 PM,11:00 AM,9:00 PM,11:00 AM,9:00 PM,11:00 AM,9:00 PM,,,6,1,1,0,1
143,Biscotti Cafe & Pastry Shop,Restaurant,Bakeries,Cafes,,3.875,48,10,0,"741 N Salina St, Syracuse, NY 13208",741 N Salina St,Syracuse,NY,13208,43.06109,-76.1540799,13154789583,biscotticafe.com,No,No,Yes,Yes,,,,,Private Lot,Yes,Yes,Yes,Yes,Casual,,,No,No,Free,No,,,,,,,,,,,,,,,,,7:00 AM,7:00 PM,7:00 AM,7:00 PM,7:00 AM,7:00 PM,7:00 AM,11:00 PM,7:00 AM,11:00 PM,7:00 AM,3:00 PM,22,9,8,7,2
144,Gee Gee's Trattoria,Restaurant,Breakfast & Brunch,American (Traditional),Steakhouses,3.875,8,30,11,"2708 Court St, Syracuse, NY 13208",2708 Court St,Syracuse,NY,13208,43.08353,-76.131691,13158027807,geegeestrattoria.com,Yes,No,Yes,Yes,,,,,Private Lot,,Yes,Yes,Yes,Casual,,Quiet,Beer & Wine Only,No,Free,Yes,Yes,Yes,,,,,,,,,,,,,7:00 AM,10:00 PM,,,7:00 AM,10:00 PM,7:00 AM,10:00 PM,7:00 AM,10:00 PM,7:00 AM,10:00 PM,7:00 AM,10:00 PM,3,3,1,0,1
145,Mok Hwa,Restaurant,American (New),,,2.666666667,6,,,"713 S Crouse Ave, Syracuse, NY 13210",713 S Crouse Ave,Syracuse,NY,13210,43.042265,-76.136292,,,No,,Yes,Yes,,,,,,,,,Yes,Casual,,,,,,Yes,,,,,,,,,,,,,,,,,,,,,,,,,,,,,0,1,3,1,1
146,Mingold Chinese Food,Restaurant,Chinese,,,3.625,8,10,0,"4713 Onondaga Blvd, Syracuse, NY 13219",4713 Onondaga Blvd,Syracuse,NY,13219,43.0349445,-76.1914256,13152145048,mingoldkitchen.com,No,Yes,Yes,Yes,,No,,,,Yes,,Yes,Yes,Casual,,Quiet,No,No,No,No,Yes,,,,,,,,,,,,,,11:00 AM,10:00 PM,11:00 AM,10:00 PM,11:00 AM,10:00 PM,11:00 AM,10:00 PM,11:00 AM,11:00 PM,11:00 AM,11:00 PM,12:00 PM,10:00 PM,4,1,0,2,1
147,Khao Gaeng - Build your own Thai Bowl,Restaurant,Thai,Street Vendors,,4.5,8,10,0,"208 W Genesee St, Syracuse, NY 13202",208 W Genesee St,Syracuse,NY,13202,43.0516394,-76.1538433,13154248424,mythaibowl.com,No,Yes,Yes,Yes,,,,Lunch,,Yes,,Yes,Yes,Casual,,Quiet,No,No,,No,No,,,,,,,,,,,,,,11:00 AM,2:00 PM,11:00 AM,2:00 PM,11:00 AM,2:00 PM,11:00 AM,2:00 PM,11:00 AM,2:00 PM,4:30 PM,8:30 PM,4:30 PM,8:30 PM,5,2,1,0,0
148,Salt City Dogs,Restaurant,Burgers,Hot Dogs,,3.8,5,,,"401 Northern Lights Plz, Syracuse, NY 13212",401 Northern Lights Plz,Syracuse,NY,13212,43.1113924,-76.1449075,13154544271,saltcitydogs.net,No,No,Yes,Yes,No,,No,,Private Lot,No,Yes,,,,,,No,Yes,No,No,No,No,,No,,,,,,,,,,,9:30 AM,8:00 PM,9:30 AM,8:00 PM,9:30 AM,8:00 PM,9:30 AM,8:00 PM,9:30 AM,8:00 PM,9:30 AM,8:00 PM,11:00 AM,7:00 PM,2,2,0,0,1
149,Sam's Chicken Land,Restaurant,Burgers,Salad,Seafood,4.857142857,7,10,0,"527 Charles Ave, Syracuse, NY 13209",527 Charles Ave,Syracuse,NY,13209,43.0496485,-76.1978245,13154884555,samschickenland.com,No,Yes,Yes,Yes,No,No,No,,,Yes,Yes,Yes,Yes,Casual,Divey,Quiet,Beer & Wine Only,No,Free,No,Yes,Yes,,No,,,,,,,,,,No,11:00 AM,8:00 PM,11:00 AM,8:00 PM,11:00 AM,8:00 PM,11:00 AM,8:00 PM,11:00 AM,8:30 PM,11:00 AM,8:00 PM,,,6,1,0,0,0
150,El Isleño,Restaurant,Caribbean,,,5,1,,,"719 S Geddes St, Syracuse, NY 13204",719 S Geddes St,Syracuse,NY,13204,43.04047277,-76.17204568,12677708251,,,No,Yes,Yes,,,,,,,,,Yes,,,,,,,,,,,,,,,,,,,,,,8:30 AM,4:00 PM,7:30 AM,4:00 PM,7:30 AM,4:00 PM,7:30 AM,4:00 PM,7:30 AM,4:00 PM,7:30 AM,4:00 PM,,,1,0,0,0,0
151,Checker's Family Restaurant & Pizzeria,Restaurant,Pizza,Chicken Wings,Desserts,1.818181818,11,10,0,"425 Milton Ave, Syracuse, NY 13204",425 Milton Ave,Syracuse,NY,13204,43.0506665,-76.1884849,13154884141,checkerssyracuse.com,No,Yes,Yes,Yes,,,,,,Yes,,Yes,,Casual,,Average,No,No,No,No,Yes,Yes,,,,,,,,,,,,,8:30 AM,8:30 PM,8:30 AM,8:30 PM,8:30 AM,8:30 PM,8:30 AM,8:30 PM,8:30 AM,10:30 PM,8:30 AM,10:00 PM,8:30 AM,8:30 PM,0,3,0,0,8
152,Panda West Chinese Restaurant,Restaurant,Chinese,,,3.6,35,10,0,"135 Marshall St, Syracuse, NY 13210",135 Marshall St,Syracuse,NY,13210,43.0418374,-76.1357073,13154747777,,Yes,Yes,Yes,Yes,No,,No,"Lunch, Dinner",Street,Yes,Yes,Yes,Yes,Casual,Casual,Quiet,No,No,No,No,Yes,Yes,,No,,,,,,,,,,,11:00 AM,10:00 PM,11:00 AM,10:00 PM,11:00 AM,10:00 PM,11:00 AM,10:00 PM,11:00 AM,11:00 PM,11:00 AM,11:00 PM,12:00 PM,10:00 PM,8,13,9,2,3
153,Jake Hafner's Restaurant & Tavern,Restaurant,Sports Bars,American (New),,3.413043478,46,30,11,"5226 W Taft Rd, Syracuse, NY 13212",5226 W Taft Rd,Syracuse,NY,13212,43.1220368,-76.1553961,13154585108,jakehafners.com,Yes,No,Yes,Yes,No,,No,Dinner,Private Lot,Yes,Yes,Yes,Yes,Casual,Casual,Average,Full Bar,Yes,Free,Yes,Yes,Yes,No,,No,No,Yes,"Wed, Fri, Sat",Outdoor Area / Patio Only,,,Background,,,11:00 AM,2:00 AM,11:00 AM,2:00 AM,11:00 AM,2:00 AM,11:00 AM,2:00 AM,11:00 AM,2:00 AM,11:00 AM,2:00 AM,12:00 PM,2:00 AM,7,21,9,2,7
154,Cantina Laredo,Restaurant,Mexican,Breakfast & Brunch,,2.777777778,54,30,11,"306 Hiawatha Blvd W, Syracuse, NY 13290",306 Hiawatha Blvd W,Syracuse,NY,13290,43.06771884,-76.17155537,13154761750,cantinalaredo.com,Yes,No,Yes,Yes,,,,Brunch,,No,,Yes,Yes,Casual,,Loud,Full Bar,No,Free,Yes,Yes,No,,,,,,,,,,,,,11:00 AM,10:00 PM,11:00 AM,10:00 PM,11:00 AM,10:00 PM,11:00 AM,10:00 PM,11:00 AM,11:00 PM,11:00 AM,11:00 PM,11:00 AM,10:00 PM,11,7,9,13,14
155,Key Pizza,Restaurant,Pizza,Chicken Wings,,3.125,8,30,11,"1135 Erie Blvd E, Syracuse, NY 13210",1135 Erie Blvd E,Syracuse,NY,13210,43.050727,-76.1331977,13152953237,keypizzasyracuseny.com/11335,No,Yes,Yes,Yes,,,No,,Private Lot,Yes,No,Yes,Yes,Casual,,,No,No,No,No,No,No,,No,,,,,,,,,,,6:00 AM,4:00 AM,6:00 AM,4:00 AM,6:00 AM,4:00 AM,6:00 AM,4:00 AM,6:00 AM,5:00 AM,6:00 AM,5:00 AM,6:00 AM,4:00 AM,2,3,0,0,3
156,Erawan Thai Restaurant,Restaurant,Thai,,,3.458823529,85,30,11,"2724 Erie Blvd E, Syracuse, NY 13224",2724 Erie Blvd E,Syracuse,NY,13224,43.0539971,-76.0969184,13154458152,erawan-inc.com,No,No,Yes,Yes,,,,Dinner,Private Lot,Yes,Yes,Yes,Yes,Casual,Casual,Average,Beer & Wine Only,No,No,No,Yes,No,,,,,,,,,,,,,11:30 AM,2:30 PM,11:30 AM,2:30 PM,11:30 AM,2:30 PM,11:30 AM,2:30 PM,11:30 AM,2:30 PM,11:30 AM,2:30 PM,,,24,27,9,14,11
157,The Chicken Bandit,Restaurant,Food Trucks,Chicken Shop,,4.8,5,30,11,"211 W Jefferson St, Syracuse, NY 13202",211 W Jefferson St,Syracuse,NY,13202,43.0465936,-76.1541621,13155691336,chickenbandit.com,No,No,Yes,Yes,,,,,,Yes,,Yes,,Casual,,,,,,,,Yes,,,,,,,,,,,,,11:00 AM,3:00 PM,11:00 AM,3:00 PM,11:00 AM,3:00 PM,11:00 AM,3:00 PM,11:00 AM,3:00 PM,,,,,4,1,0,0,0
158,Thanos Import Market,Restaurant,Grocery,Delis,,4.8,5,30,11,"105 Green St, Syracuse, NY 13203",105 Green St,Syracuse,NY,13203,43.053525,-76.141812,13154224085,,,No,Yes,Yes,,,,,,Yes,,,,,,,,,,,,,,,,,,,,,,,,,10:00 AM,6:00 PM,10:00 AM,6:00 PM,10:00 AM,6:00 PM,10:00 AM,6:00 PM,10:00 AM,6:00 PM,8:00 AM,4:00 PM,10:00 AM,2:00 PM,4,1,0,0,0
159,Santangelo's Restaurant,Restaurant,Italian,,,4.127906977,86,30,11,"673 Old Liverpool Rd, Liverpool, NY 13088",673 Old Liverpool Rd,Liverpool,NY,13088,43.094167,-76.19584,13154574447,santangelosrestaurant.com,Yes,No,Yes,Yes,,,,Dinner,Private Lot,No,Yes,Yes,Yes,Casual,Casual,Average,Full Bar,Yes,No,Yes,Yes,Yes,,,,,,,,,,,,,11:30 AM,10:00 PM,11:30 AM,10:00 PM,11:30 AM,10:00 PM,11:30 AM,10:00 PM,11:30 AM,11:00 PM,4:00 PM,11:00 PM,4:00 PM,9:00 PM,47,22,4,7,6
161,Red Olive,Restaurant,Indian,Halal,Middle Eastern,3.514285714,35,30,11,"324 Burnet Ave, Syracuse, NY 13203",324 Burnet Ave,Syracuse,NY,13203,43.0520938,-76.1422804,13158024037,redoliveonline.com,Yes,Yes,Yes,Yes,,,,"Lunch, Dinner",Street,Yes,Yes,Yes,Yes,Casual,Casual,Quiet,No,No,Free,Yes,Yes,Yes,,,,,,,,,Yes,,,,,,11:00 AM,10:00 PM,11:00 AM,10:00 PM,11:00 AM,10:00 PM,11:00 AM,10:00 PM,10:00 AM,10:00 PM,10:00 AM,10:00 PM,11,9,7,3,5
163,Margaritaville - Syracuse,Restaurant,Bars,American (Traditional),Music Venues,2.850746269,67,30,11,"1 Destiny Usa Dr\nDestiny USA, Syracuse, NY 13290",1 Destiny Usa Dr\nDestiny USA,Syracuse,NY,13290,43.0680296,-76.1726098,13154014222,margaritavillesyracuse.com,Yes,No,Yes,Yes,,,,Dinner,Garage,Yes,,Yes,Yes,Casual,Casual,Average,Full Bar,No,Free,Yes,Yes,No,No,,No,No,Yes,"Fri, Sat, Sun",No,,,,,,11:00 AM,10:00 PM,11:00 AM,10:00 PM,11:00 AM,10:00 PM,11:00 AM,10:00 PM,11:00 AM,1:00 AM,11:00 AM,1:00 AM,11:00 AM,9:00 PM,15,11,8,15,18
164,The Good Life Diner,Restaurant,Diners,,,4.083333333,12,10,0,"3600 Court St, Syracuse, NY 13206",3600 Court St,Syracuse,NY,13206,43.08114014,-76.11810553,13152185008,,No,No,Yes,Yes,,,,"Breakfast, Lunch",Private Lot,Yes,,Yes,Yes,Casual,Casual,Average,No,No,No,Yes,Yes,Yes,,,,,,,,,,,,,6:00 AM,2:00 PM,6:00 AM,2:00 PM,6:00 AM,2:00 PM,6:00 AM,2:00 PM,6:00 AM,2:00 PM,6:00 AM,2:00 PM,6:00 AM,2:00 PM,6,4,0,1,1
165,Coleman's Authentic Irish Pub,Restaurant,Pubs,American (Traditional),Irish,3.75,52,30,11,"100 S Lowell Ave, Syracuse, NY 13204",100 S Lowell Ave,Syracuse,NY,13204,43.0480177,-76.1816574,13154761933,colemansirishpub.com,Yes,No,Yes,Yes,,,,"Lunch, Dinner",Private Lot,Yes,Yes,Yes,Yes,Casual,Casual,Average,Full Bar,Yes,Free,Yes,Yes,,No,,,No,Yes,"Mon, Fri, Sat",Outdoor Area / Patio Only,,,Live,,,11:30 AM,2:00 AM,11:30 AM,2:00 AM,11:30 AM,2:00 AM,11:30 AM,2:00 AM,11:30 AM,2:00 AM,11:30 AM,2:00 AM,11:30 AM,2:00 AM,12,24,10,3,3
166,Golden Spike Pub,Restaurant,Pubs,Burgers,Chicken Wings,4.866666667,15,30,11,"411 W Manlius St, East Syracuse, NY 13057",411 W Manlius St,East Syracuse,NY,13057,43.064666,-76.077658,13155655691,,No,,,Yes,No,,,,,No,No,,Yes,,,Very Loud,Full Bar,No,,Yes,,,No,,,No,No,,No,,,Juke Box,,,11:00 AM,11:00 PM,11:00 AM,11:00 PM,11:00 AM,11:00 PM,11:00 AM,11:00 PM,11:00 AM,1:00 AM,11:00 AM,12:30 AM,12:00 PM,9:00 PM,13,2,0,0,0
167,Samrat Indian Restaurant,Restaurant,Indian,Pakistani,Buffets,3.661016949,59,30,11,"701 S Crouse Ave\nSte 2, Syracuse, NY 13210",701 S Crouse Ave\nSte 2,Syracuse,NY,13210,43.0425476,-76.1364407,13154796051,,Yes,No,Yes,Yes,,,,Lunch,Street,Yes,,Yes,Yes,Casual,Casual,Quiet,Beer & Wine Only,No,No,No,Yes,No,,,,,,,,,,,,,9:00 AM,11:00 PM,9:00 AM,11:00 PM,9:00 AM,11:00 PM,9:00 AM,11:00 PM,9:00 AM,11:00 PM,9:00 AM,10:00 PM,9:00 AM,10:00 PM,13,24,13,7,2
168,New Garden,Restaurant,Chinese,,,3.35,20,10,0,"471 Westcott St, Syracuse, NY 13210",471 Westcott St,Syracuse,NY,13210,43.0418078,-76.1193532,13154726666,newgardensyracuse.com,No,Yes,Yes,Yes,No,,,,Street,Yes,,Yes,Yes,Casual,,Average,No,Yes,No,,No,,,,,,,,,,,,,,11:00 AM,11:00 PM,11:00 AM,11:00 PM,11:00 AM,11:00 PM,11:00 AM,11:00 PM,11:00 AM,11:30 PM,11:00 AM,11:30 PM,12:30 PM,11:00 PM,5,8,0,3,4
169,Tortilla Jacks,Restaurant,Mexican,Food Trucks,,5,3,,,"203 Wellesley Rd, Syracuse, NY 13214",203 Wellesley Rd,Syracuse,NY,13214,43.020924,-76.16885,13154156046,tortillajacks.com,,,,,,,,,,,,,,,,,,,,,,,,,,,,,,,,,,,,,,,,,,,,,,,,,3,0,0,0,0
170,World of Beer,Restaurant,Pubs,American (Traditional),,3.555555556,72,30,11,"10347 Destiny USA Dr, Syracuse, NY 13204",10347 Destiny USA Dr,Syracuse,NY,13204,43.06859,-76.170963,13154222330,worldofbeer.com,No,Yes,Yes,Yes,No,,No,"Lunch, Dinner","Valet, Garage, Street",Yes,Yes,No,Yes,Casual,Casual,Average,Full Bar,No,Free,Yes,Yes,Yes,No,No,No,No,Yes,"Thu, Fri, Sat",No,,,,,,12:00 PM,12:00 AM,12:00 PM,12:00 AM,12:00 PM,12:00 AM,12:00 PM,12:00 AM,11:00 AM,2:00 AM,11:00 AM,2:00 AM,10:00 AM,12:00 AM,17,31,9,5,10
171,Al Madina Halal Meat & Grill,Restaurant,Middle Eastern,Halal,Mediterranean,4.2,5,60,31,"717 N Salina St, Syracuse, NY 13208",717 N Salina St,Syracuse,NY,13208,43.06072682,-76.15344758,13153960507,almadinahalalgrill.com,No,No,,Yes,No,No,,,,,,Yes,,Casual,,Very Loud,No,,,No,,,,,,,,,,,,,,,10:00 AM,10:00 PM,10:00 AM,10:00 PM,10:00 AM,10:00 PM,10:00 AM,10:00 PM,10:00 AM,11:00 PM,10:00 AM,11:00 PM,10:00 AM,9:00 PM,2,2,1,0,0
172,Ernie's Lakeland Cafe,Restaurant,Cafes,,,4.75,4,,,"779 State Fair Blvd, Syracuse, NY 13209",779 State Fair Blvd,Syracuse,NY,13209,43.0873762,-76.2384907,13154683777,ernieslakelandcafe.com,,No,Yes,Yes,,,,,,,,Yes,Yes,,,,,No,,No,,,,,,,,,,,,,,,,,3:00 PM,8:00 PM,3:00 PM,8:00 PM,3:00 PM,8:00 PM,3:00 PM,9:00 PM,4:00 AM,9:00 PM,,,3,1,0,0,0
173,M Kaiten Sushi,Restaurant,Sushi Bars,Japanese,Korean,3.5,2,30,11,"113 Marshall St, Syracuse, NY 13210",113 Marshall St,Syracuse,NY,13210,43.0417721,-76.1362521,13154711070,mkaitensushi.com,,,Yes,Yes,No,,,,Street,No,,Yes,Yes,,,,,,,,,,,,,,,,,,,,,,11:00 AM,10:00 PM,11:00 AM,10:00 PM,11:00 AM,10:00 PM,11:00 AM,10:00 PM,11:00 AM,10:00 PM,11:00 AM,10:00 PM,,,1,0,0,1,0
174,The Gem Diner,Restaurant,Diners,,,3.560606061,66,10,0,"832 Spencer St, Syracuse, NY 13204",832 Spencer St,Syracuse,NY,13204,43.05744932,-76.17337651,13153147380,thegemdiner.com,No,No,Yes,Yes,,,,"Breakfast, Brunch, Lunch",Private Lot,Yes,Yes,Yes,Yes,Casual,Casual,Average,Beer & Wine Only,No,No,Yes,Yes,Yes,,,,,,,,,,,,,,,6:00 AM,10:00 PM,6:00 AM,10:00 PM,6:00 AM,10:00 PM,6:00 AM,10:00 PM,6:00 AM,10:00 PM,6:00 AM,7:00 PM,22,17,11,8,8
175,Stone's Farm Fresh,Restaurant,Steakhouses,Burgers,Sandwiches,1.75,4,30,11,"3649 Erie Boulevard E, Syracuse, NY 13214",3649 Erie Boulevard E,Syracuse,NY,13214,43.0406997,-76.0644832,13158027989,stonesfarmfresh.com,No,No,Yes,Yes,,,,,Private Lot,Yes,Yes,Yes,Yes,Casual,,Average,No,No,Free,No,No,Yes,,No,,,,,,,,,,No,10:00 AM,9:00 PM,10:00 AM,9:00 PM,10:00 AM,9:00 PM,10:00 AM,9:00 PM,10:00 AM,9:00 PM,10:00 AM,9:00 PM,11:00 AM,6:00 PM,0,0,1,1,2
176,Salt City Grille,Restaurant,American (New),Cocktail Bars,,2.75,8,,,"1333 Buckley Rd, Syracuse, NY 13212",1333 Buckley Rd,Syracuse,NY,13212,43.094969,-76.170684,13152996371,saltcitygrille.com,Yes,No,,,,,,,,,,,,Casual,,Average,,,,,Yes,,,,,,,,,,,,,,,,4:00 PM,10:00 PM,4:00 PM,10:00 PM,4:00 PM,10:00 PM,4:00 PM,10:30 PM,4:00 PM,10:30 PM,,,2,0,1,4,1
177,712 Kubal,Restaurant,Coffee & Tea,Cafes,,5,1,,,"712 East Fayette St\nFayette Place Apartments, Syracuse, NY 13210",712 East Fayette St\nFayette Place Apartments,Syracuse,NY,13210,43.0482151,-76.1410553,13153031604,cafekubal.com,,,,,,,,,,,,,,,,,,,,,,,,,,,,,,,,,,,7:00 AM,7:00 PM,7:00 AM,7:00 PM,7:00 AM,7:00 PM,7:00 AM,7:00 PM,7:00 AM,7:00 PM,8:00 AM,7:00 PM,8:00 AM,7:00 PM,1,0,0,0,0
178,Rong Cheng,Restaurant,Asian Fusion,,,4,3,,,"402 W Seneca Tpke, Syracuse, NY 13207",402 W Seneca Tpke,Syracuse,NY,13207,43.0020833,-76.1532527,13154922888,,No,No,,Yes,,,,,,,,No,No,,,,,,,,,,,,,,,,,,,,,,11:00 AM,10:00 PM,11:00 AM,10:00 PM,11:00 AM,10:00 PM,11:00 AM,10:00 PM,11:00 AM,10:30 PM,11:00 AM,10:30 PM,12:00 PM,9:30 PM,2,0,0,1,0
179,The Jamerican Diner,Restaurant,Caribbean,Diners,Salad,3.4,20,30,11,"415 E Washington St, Syracuse, NY 13202",415 E Washington St,Syracuse,NY,13202,43.04837622,-76.14729179,13154247090,JamericanDiner.com,Yes,Yes,Yes,Yes,,,,,,Yes,Yes,Yes,Yes,Casual,,,No,No,Free,Yes,Yes,Yes,,,,,,,,,,,,,,,11:00 AM,8:00 PM,11:00 AM,8:00 PM,11:00 AM,8:00 PM,11:00 AM,8:00 PM,11:00 AM,8:00 PM,,,7,5,1,3,4
180,Liehs & Steigerwald Downtown,Restaurant,Butcher,Delis,,3.741935484,31,10,0,"117 E Fayette St, Syracuse, NY 13202",117 E Fayette St,Syracuse,NY,13202,43.0487829,-76.1516556,13152994799,,No,Yes,Yes,Yes,,,,"Lunch, Dinner",Street,Yes,Yes,Yes,Yes,Casual,Casual,Average,Beer & Wine Only,Yes,Free,Yes,No,Yes,,,,,,,,,,,,,10:30 AM,8:00 PM,10:30 AM,8:00 PM,10:30 AM,8:00 PM,10:30 AM,8:00 PM,10:30 AM,9:00 PM,10:30 AM,9:00 PM,,,11,10,3,5,2
181,Nick's Tomato Pie,Restaurant,Pizza,,,3.814814815,27,10,0,"109 Walton St, Syracuse, NY 13202",109 Walton St,Syracuse,NY,13202,43.0477849,-76.1538876,13154727703,nickstomatopiesyracuse.com,No,No,Yes,Yes,,,,Late Night,Street,No,Yes,Yes,Yes,Casual,Divey,Average,No,Yes,No,Yes,No,No,,,,,,,,,,,,,10:30 AM,9:00 PM,10:30 AM,9:00 PM,10:30 AM,9:00 PM,10:30 AM,9:00 PM,10:30 AM,9:00 PM,11:00 AM,9:00 PM,,,10,8,5,2,2
182,The Clam Bar,Restaurant,Seafood,,,3.975409836,122,30,11,"3914 Brewerton Rd, North Syracuse, NY 13212",3914 Brewerton Rd,North Syracuse,NY,13212,43.121789,-76.1423308,13154581662,theclambarrestaurant.com,Yes,No,Yes,Yes,No,,,Dinner,Private Lot,Yes,No,Yes,Yes,Casual,,Average,Full Bar,Yes,Free,Yes,Yes,Yes,,No,,,,,,,,,,,11:30 AM,10:00 PM,11:30 AM,10:00 PM,11:30 AM,10:00 PM,11:30 AM,10:00 PM,11:30 AM,11:00 PM,11:30 AM,11:00 PM,12:00 PM,9:00 PM,41,54,15,7,5
183,Cugini,Restaurant,Pizza,,,3.923076923,26,10,0,"230 W Genesee St, Syracuse, NY 13202",230 W Genesee St,Syracuse,NY,13202,43.0517107,-76.154277,13154771000,cuginisyracuse.com,No,Yes,Yes,Yes,,,,,,No,,Yes,Yes,Casual,,Quiet,No,No,No,No,No,No,,,,,,,,,,,,,,,11:00 AM,10:00 PM,11:00 AM,10:00 PM,11:00 AM,10:00 PM,11:00 AM,10:00 PM,11:30 AM,10:00 PM,12:00 PM,9:00 PM,14,4,2,4,2
184,Sbarro,Restaurant,Pizza,Italian,,2,1,,,"Syracuse Hancock International Airport, N Terminal B\n1000 Colonel Eileen Collins Blvd, Syracuse, NY 13212","Syracuse Hancock International Airport, N Terminal B\n1000 Colonel Eileen Collins Blvd",Syracuse,NY,13212,43.0734245,-76.1721729,,sbarro.com,,,,,,,,,,,,,,,,,,,,,,,,,,,,,,,,,,,,,,,,,,,,,,,,,0,0,0,1,0
185,W XYZ Bar,Restaurant,Venues & Event Spaces,Tapas/Small Plates,Cocktail Bars,,0,,,"310 W Kirkpatrick St\nAloft Syracuse Inner Harbor, Syracuse, NY 13204",310 W Kirkpatrick St\nAloft Syracuse Inner Harbor,Syracuse,NY,13204,43.0604817,-76.1625426,13154221700,aloftsyracuseinnerharbor.com,,,,,,,,,,,,,,,,,,,,,,,,,,,,,,,,,,,5:00 PM,12:00 AM,5:00 PM,12:00 AM,5:00 PM,12:00 AM,5:00 PM,12:00 AM,5:00 PM,12:00 AM,5:00 PM,12:00 AM,5:00 PM,12:00 AM,0,0,0,0,0
186,Cafe at 407,Restaurant,Coffee & Tea,Cafes,,4.413793103,58,10,0,"407 Tulip St, Liverpool, NY 13088",407 Tulip St,Liverpool,NY,13088,43.104021,-76.208249,13154515855,cafeat407.org,No,No,Yes,Yes,Yes,,,"Breakfast, Brunch, Lunch, Dessert",Street,Yes,Yes,Yes,Yes,Casual,Casual,Average,No,Yes,Free,No,No,No,,,,,,,,Yes,,,,,8:00 AM,7:00 PM,8:00 AM,7:00 PM,8:00 AM,7:00 PM,8:00 AM,7:00 PM,8:00 AM,4:00 PM,8:00 AM,4:00 PM,8:00 AM,4:00 PM,34,16,7,0,1
187,Just-One-Bite,Restaurant,American (Traditional),Diners,,3.5,10,10,0,"350 North Salina St,, Syracuse, NY 13203","350 North Salina St,",Syracuse,NY,13203,43.0558419,-76.1517581,13154721989,,No,No,Yes,Yes,,,,Brunch,,Yes,,Yes,Yes,Casual,,Average,No,No,No,Yes,Yes,Yes,,,,,,,,,,,,,7:00 AM,2:00 PM,7:00 AM,2:00 PM,7:00 AM,2:00 PM,7:00 AM,2:00 PM,7:00 AM,2:00 PM,7:00 AM,2:00 PM,7:00 AM,6:00 PM,5,1,1,0,3
188,Taste of India,Restaurant,Indian,Halal,Pakistani,3.06,50,30,11,"124 Dell St, Syracuse, NY 13210",124 Dell St,Syracuse,NY,13210,43.0415052,-76.1200485,13152992405,,No,Yes,Yes,Yes,,,,Dinner,Private Lot,Yes,,Yes,Yes,Casual,Casual,Average,Beer & Wine Only,No,No,Yes,Yes,Yes,,,,,,,,,,,,,11:30 AM,3:00 PM,11:30 AM,3:00 PM,11:30 AM,3:00 PM,11:30 AM,3:00 PM,11:30 AM,3:00 PM,11:30 AM,3:00 PM,11:30 AM,3:00 PM,10,14,9,3,14
189,Boulangerie Ltd,Restaurant,Sandwiches,,,4.8,5,10,0,"526 Plum St, Syracuse, NY 13204",526 Plum St,Syracuse,NY,13204,43.056011,-76.157722,13154663108,boulangeriecafe.com,No,Yes,Yes,Yes,,,No,,"Street, Private Lot",Yes,Yes,Yes,Yes,Casual,,Average,No,Yes,No,No,No,Yes,,No,,,,,,,,,,,7:00 AM,3:00 PM,7:00 AM,3:00 PM,7:00 AM,3:00 PM,7:00 AM,3:00 PM,7:00 AM,3:00 PM,,,,,4,1,0,0,0
190,Firudo Asian Food,Restaurant,Asian Fusion,Sushi Bars,Bars,3.733333333,60,30,11,"3237 Erie Blvd E, Syracuse, NY 13214",3237 Erie Blvd E,Syracuse,NY,13214,43.05149343,-76.07226343,13158022915,firudosushi.com,Yes,No,Yes,Yes,,,,"Lunch, Dinner",Private Lot,Yes,Yes,Yes,Yes,Casual,Trendy,Quiet,Full Bar,No,No,Yes,Yes,No,,No,,No,,,,,,,,,11:00 AM,10:00 PM,11:00 AM,10:00 PM,11:00 AM,10:00 PM,11:00 AM,10:00 PM,11:00 AM,11:00 PM,11:00 AM,11:00 PM,12:00 PM,9:30 PM,26,15,4,7,8
191,Change of Pace,Restaurant,Sports Bars,American (Traditional),Chicken Wings,4.2,20,30,11,"1802 Grant Ave, Syracuse, NY 13203",1802 Grant Ave,Syracuse,NY,13203,43.072474,-76.140276,13154724409,changeofpacesyracuse.com,No,No,Yes,Yes,,,,,,No,,No,Yes,Casual,,Very Loud,Full Bar,No,,Yes,Yes,,,,,No,Yes,"Mon, Tue, Sat",,,,,,,10:00 AM,2:00 AM,10:00 AM,2:00 AM,10:00 AM,2:00 AM,10:00 AM,2:00 AM,10:00 AM,2:00 AM,10:00 AM,2:00 AM,12:00 PM,2:00 AM,7,10,3,0,0
192,Spaghetti Warehouse,Restaurant,Italian,,,3.068181818,88,30,11,"689 N Clinton St, Syracuse, NY 13204",689 N Clinton St,Syracuse,NY,13204,43.0583853,-76.1577761,13154751807,meatballs.com,Yes,Yes,Yes,Yes,,,,Dinner,Private Lot,Yes,Yes,Yes,Yes,Casual,Casual,Average,Full Bar,No,No,No,Yes,Yes,,,,,,,,,,,,,11:00 AM,10:00 PM,11:00 AM,10:00 PM,11:00 AM,10:00 PM,11:00 AM,10:00 PM,11:00 AM,11:00 PM,11:00 AM,11:00 PM,11:00 AM,10:00 PM,12,27,19,15,15
193,Second North Deli,Restaurant,Delis,,,3.857142857,14,10,0,"625 Wolf St, Syracuse, NY 13208",625 Wolf St,Syracuse,NY,13208,43.0755332,-76.1610332,13154727429,,No,Yes,Yes,Yes,,,,Lunch,,,,Yes,Yes,Casual,Casual,Quiet,Full Bar,Yes,No,Yes,No,Yes,,,,,,,,,,,,,11:00 AM,3:00 PM,11:00 AM,3:00 PM,11:00 AM,7:00 PM,11:00 AM,7:00 PM,11:00 AM,7:00 PM,11:00 AM,7:00 PM,,,3,8,1,2,0
194,Attilio's,Restaurant,Italian,,,3.75,32,30,11,"700 N Salina St, Syracuse, NY 13208",700 N Salina St,Syracuse,NY,13208,43.0607672,-76.152981,13152185085,attiliosyracuse.com/index.html,Yes,No,No,Yes,,,,Dinner,"Street, Private Lot",No,,No,Yes,Casual,Intimate,Quiet,Full Bar,No,,Yes,Yes,Yes,,,,,,,,,,,,,11:30 AM,2:30 PM,11:30 AM,2:30 PM,11:30 AM,2:30 PM,11:30 AM,2:30 PM,11:30 AM,2:30 PM,5:00 PM,10:00 PM,,,14,7,4,3,4
195,Peppino's Restaurant & Catering Company,Restaurant,Pizza,Italian,Breakfast & Brunch,2.903225806,31,10,0,"1849 Grant Blvd, Syracuse, NY 13208",1849 Grant Blvd,Syracuse,NY,13208,43.0719154,-76.1410927,13154743663,mypeppinos.com/pizzeria/25942…,No,Yes,Yes,Yes,No,,No,,Street,No,No,Yes,Yes,Casual,,Quiet,No,Yes,No,Yes,No,Yes,,,,,,,,,,,Yes,,7:30 AM,10:00 PM,7:30 AM,10:00 PM,7:30 AM,10:00 PM,7:30 AM,10:00 PM,7:30 AM,12:00 AM,9:00 AM,12:00 AM,9:00 AM,10:00 PM,11,2,1,7,10
196,China Pavilion,Restaurant,Chinese,Buffets,,3.958333333,24,30,11,"2318 W Genesee St, Syracuse, NY 13219",2318 W Genesee St,Syracuse,NY,13219,43.0477517,-76.20119361,13154882828,chinapavilioncny.com,Yes,Yes,Yes,Yes,,,,Lunch,Private Lot,No,,Yes,Yes,Casual,Casual,Quiet,Beer & Wine Only,No,No,Yes,Yes,,,,,,,,,,,,,,,,11:30 AM,9:00 PM,11:30 AM,9:00 PM,11:30 AM,9:00 PM,11:30 AM,10:00 PM,11:30 AM,10:00 PM,11:30 AM,9:00 PM,14,2,3,3,2
197,Antonio's To Go,Restaurant,Pizza,,,4,4,,,"3528 W Genesee St, Syracuse, NY 13219",3528 W Genesee St,Syracuse,NY,13219,43.0480008,-76.2361098,13154101414,,,,,,,,,,,,,,,,,,,,,,,,,,,,,,,,,,,,11:00 AM,9:00 PM,11:00 AM,9:00 PM,11:00 AM,9:00 PM,11:00 AM,9:00 PM,11:00 AM,10:00 PM,11:00 AM,10:00 PM,12:00 PM,8:00 PM,2,1,0,1,0
198,CilantroMex,Restaurant,Tex-Mex,Salad,Mexican,2.823529412,17,10,0,"9090 Destiny USA Dr, Syracuse, NY 13204",9090 Destiny USA Dr,Syracuse,NY,13204,43.06903057,-76.17262278,13154222789,cilantromex.com,No,No,Yes,Yes,,,No,,"Valet, Private Lot",No,Yes,Yes,Yes,Casual,,Quiet,No,No,Free,No,No,Yes,,No,,,,,,,,,Yes,,11:00 AM,9:30 PM,11:00 AM,9:30 PM,11:00 AM,9:30 PM,11:00 AM,9:30 PM,11:00 AM,10:00 PM,11:00 AM,10:00 PM,11:00 AM,6:00 PM,4,1,4,4,4
199,Johnny Mac's Pizzeria & Deli,Restaurant,Pizza,,,3.6,10,10,0,"894 State Fair Blvd, Syracuse, NY 13209",894 State Fair Blvd,Syracuse,NY,13209,43.0943012,-76.2430387,13154684052,,No,Yes,Yes,Yes,,,,Lunch,,Yes,,Yes,Yes,Casual,Divey,Quiet,No,Yes,No,Yes,No,Yes,,,,,,,,,,,,,,,,,,,,,,,,,,,4,3,0,1,2
200,Rio Grande Mexican Restaurant,Restaurant,Mexican,,,4.3,40,30,11,"510 Oswego St, Liverpool, NY 13088",510 Oswego St,Liverpool,NY,13088,43.1032423,-76.2050828,13158022579,,No,No,Yes,Yes,No,,,"Lunch, Dessert",,No,,Yes,Yes,Casual,,Average,No,No,No,No,Yes,,,,,,,,,,,,,,11:00 AM,9:30 PM,11:00 AM,9:30 PM,11:00 AM,9:30 PM,11:00 AM,9:30 PM,11:00 AM,10:00 PM,11:00 AM,10:00 PM,11:00 AM,9:30 PM,24,9,3,3,1
201,TGI Fridays,Restaurant,American (Traditional),,,3.209302326,43,30,11,"9090 Destiny Dr, Syracuse, NY 13290",9090 Destiny Dr,Syracuse,NY,13290,43.0691367,-76.1727999,13154700444,tgifridays.com/locations/2476…,No,No,Yes,Yes,No,,,"Lunch, Dinner, Late Night, Dessert",,No,,Yes,Yes,Casual,Casual,Loud,Full Bar,No,Free,Yes,Yes,No,,,,,,,,,,,,,11:00 AM,1:00 AM,11:00 AM,1:00 AM,11:00 AM,1:00 AM,11:00 AM,1:00 AM,11:00 AM,2:00 AM,11:00 AM,2:00 AM,11:00 AM,1:00 AM,10,12,7,5,9
202,Frogger's On the Hill,Restaurant,Pizza,Sandwiches,,3.125,8,10,0,"4543 W Seneca Tpke, Syracuse, NY 13215",4543 W Seneca Tpke,Syracuse,NY,13215,43.0007472,-76.1964266,13152996533,froggersonthehill.com,No,Yes,Yes,Yes,,,,,,No,Yes,Yes,Yes,Casual,,Average,No,Yes,No,No,Yes,,,,,,,,,,,,,,11:00 AM,11:00 PM,11:00 AM,11:00 PM,11:00 AM,11:00 PM,11:00 AM,11:00 PM,11:00 AM,11:00 PM,11:00 AM,11:00 PM,2:00 PM,9:00 PM,2,2,1,1,2
203,Barbieri's II,Restaurant,American (Traditional),,,2.857142857,7,10,0,"304 S Main St, Syracuse, NY 13212",304 S Main St,Syracuse,NY,13212,43.1331912,-76.1309064,13154588070,,No,No,Yes,Yes,,,,,,,,Yes,Yes,Casual,,Average,,No,,Yes,Yes,,,,,,,,,,,,,,7:00 AM,2:00 PM,7:00 AM,7:00 PM,7:00 AM,7:00 PM,7:00 AM,7:00 PM,7:00 AM,7:00 PM,7:00 AM,7:00 PM,11:30 AM,2:00 PM,1,1,2,2,1
204,Zhou's Restaurant,Restaurant,Chinese,,,3.6,5,,,"1449 Erie Blvd E, Syracuse, NY 13210",1449 Erie Blvd E,Syracuse,NY,13210,43.0504783,-76.1276,13154761823,,,,,,,,,,,,,,,,,,,,,,,,,,,,,,,,,,,,,,,,,,,,,,,,,,1,3,0,0,1
205,Johnny Rockets,Restaurant,Burgers,Diners,,3.024390244,41,30,11,"9672 Destiny Usa Dr\nDestiny USA, Syracuse, NY 13290",9672 Destiny Usa Dr\nDestiny USA,Syracuse,NY,13290,43.0717901,-76.1711906,13154747406,johnnyrockets.com,No,No,Yes,Yes,Yes,,,"Lunch, Dinner","Garage, Private Lot",No,Yes,Yes,Yes,Casual,,Average,No,No,Free,No,Yes,No,,,,,,,,,,,,No,11:00 AM,9:30 PM,11:00 AM,9:30 PM,11:00 AM,9:30 PM,11:00 AM,9:30 PM,11:00 AM,9:30 PM,11:00 AM,9:30 PM,11:00 AM,6:00 PM,5,12,10,7,7
206,Mac's Local Yolk,Restaurant,Breakfast & Brunch,Delis,,2.629032258,62,30,11,"4603 E Genesee St, Syracuse, NY 13214",4603 E Genesee St,Syracuse,NY,13214,43.03490684,-76.06438971,13154460915,macslocalyolk.com,No,No,Yes,Yes,No,,No,"Breakfast, Brunch, Lunch",Private Lot,Yes,Yes,Yes,Yes,Casual,Casual,Average,No,Yes,Free,Yes,Yes,Yes,,No,,,,,,,,,,,7:00 AM,4:00 PM,7:00 AM,4:00 PM,7:00 AM,8:00 PM,7:00 AM,8:00 PM,7:00 AM,10:00 PM,7:00 AM,10:00 PM,7:00 AM,8:00 PM,13,10,3,13,23
207,Ponchito's Taqueria,Restaurant,Mexican,Latin American,Breakfast & Brunch,3.625,56,10,0,"3800 New Court Ave, Syracuse, NY 13206",3800 New Court Ave,Syracuse,NY,13206,43.0806011,-76.1150848,13152180294,ponchitossyr.com,No,Yes,Yes,Yes,,,,"Lunch, Dinner",Private Lot,No,Yes,Yes,Yes,Casual,Divey,Average,No,No,No,Yes,No,Yes,,,,,,,,,,,,,7:00 AM,9:00 PM,7:00 AM,9:00 PM,7:00 AM,9:00 PM,7:00 AM,11:00 PM,7:00 AM,3:00 AM,12:00 PM,3:00 AM,,,12,26,8,5,5
208,Sonic Drive-In,Restaurant,Fast Food,Burgers,Hot Dogs,1.9,10,10,0,"3170 Erie Blvd E, Syracuse, NY 13214",3170 Erie Blvd E,Syracuse,NY,13214,43.053111,-76.075677,13152995840,,No,No,Yes,Yes,,,,,,Yes,,Yes,No,Casual,,,,,,,,,,,,,,,,,Yes,,,,7:00 AM,1:00 PM,7:00 AM,1:00 PM,7:00 AM,1:00 PM,7:00 AM,1:00 PM,7:00 AM,1:00 PM,7:00 AM,1:00 PM,7:00 AM,1:00 PM,1,1,1,0,7
209,Pita Pit,Restaurant,Sandwiches,,,3.085714286,35,10,0,"107 Marshall St, Syracuse, NY 13210",107 Marshall St,Syracuse,NY,13210,43.0418153,-76.136254,13154790461,pitapitusa.com,No,Yes,Yes,Yes,,,,"Lunch, Dinner, Late Night",Street,Yes,Yes,Yes,No,Casual,,Quiet,No,No,No,No,No,Yes,,,,,,,,,,,,,10:00 AM,3:00 PM,10:00 AM,3:00 PM,10:00 AM,3:00 PM,10:00 AM,4:00 PM,10:00 AM,4:00 PM,10:00 AM,4:00 PM,11:00 AM,3:00 PM,4,11,11,2,7
211,A Mexican Affair,Restaurant,Mexican,,,3.777777778,18,10,0,"2324 Court St, Syracuse, NY 13208",2324 Court St,Syracuse,NY,13208,43.0832989,-76.137027,13152996519,,No,Yes,Yes,Yes,,,,,,,,Yes,No,Casual,,Average,No,Yes,,No,No,,,,,,,,,,,,,,4:00 PM,10:00 PM,11:00 AM,10:00 PM,11:00 AM,10:00 PM,11:00 AM,10:00 PM,11:00 AM,12:00 AM,11:00 AM,12:00 AM,3:00 PM,8:00 PM,9,3,2,1,3
212,Fortune Hawaii,Restaurant,Chinese,,,3.5,12,30,11,"4324 E Genesee St, Syracuse, NY 13214",4324 E Genesee St,Syracuse,NY,13214,43.0348958,-76.0683458,13154466666,fortunehawaiidewitt.com,No,Yes,Yes,Yes,,,,,,No,,Yes,No,Casual,,Average,No,No,No,Yes,Yes,Yes,,,,,,,,,,,,,,,11:00 AM,10:00 PM,11:00 AM,10:00 PM,11:00 AM,10:00 PM,11:00 AM,11:00 PM,11:00 AM,11:00 PM,12:00 PM,10:00 PM,3,4,2,2,1
214,The Fish Friar,Restaurant,Fish & Chips,Salad,Sandwiches,4.642857143,28,30,11,"239 E Genessee St, syracuse, NY 13202",239 E Genessee St,syracuse,NY,13202,43.0497144,-76.1498042,13154683474,thefishfriar.com,No,No,Yes,Yes,,,,,,No,No,Yes,No,Casual,,Average,Beer & Wine Only,Yes,No,No,Yes,Yes,,,,,,,,,,,,,,,11:00 AM,7:00 PM,11:00 AM,7:00 PM,11:00 AM,7:00 PM,11:00 AM,9:00 PM,12:00 PM,7:00 PM,,,22,4,1,0,1
215,Mama Nancy's,Restaurant,American (New),Diners,Sandwiches,3.352941176,34,10,0,"512 State Fair Blvd, Syracuse, NY 13204",512 State Fair Blvd,Syracuse,NY,13204,43.0600581,-76.1824246,13157014994,mamanancys.com,No,No,Yes,Yes,,,,"Breakfast, Brunch, Late Night",Private Lot,No,,Yes,Yes,Casual,Divey,Average,No,No,No,Yes,Yes,No,,,,,,,,,,,,,,,,,,,,,,,,,,,10,9,5,3,7
216,Popeyes Louisiana Kitchen,Restaurant,Fast Food,Chicken Wings,,,0,,,"3062 Erie Blvd E, Syracuse, NY 13214",3062 Erie Blvd E,Syracuse,NY,13214,43.0551,-76.083654,13158830276,locations.popeyes.com,,,,,,,,,,,,,,,,,,,,,,,,,,,,,,,,,,,,,,,,,,,,,,,,,0,0,0,0,0
217,Swallow's Restaurant,Restaurant,Bars,Chicken Wings,,4,17,10,0,"1914 South Ave, Syracuse, NY 13207",1914 South Ave,Syracuse,NY,13207,43.0188896,-76.1609625,13154789292,,No,No,Yes,Yes,No,,,Late Night,Private Lot,No,,No,Yes,Casual,Casual,Average,Full Bar,No,No,Yes,Yes,No,No,,No,No,Yes,"Mon, Sat, Sun",Outdoor Area / Patio Only,,,"Juke Box, Background",,,,,,,,,,,,,,,,,9,4,1,1,2
218,Barbieri's III,Restaurant,Breakfast & Brunch,,,4,2,10,0,"913 Wolf St, Syracuse, NY 13208",913 Wolf St,Syracuse,NY,13208,43.078808,-76.1588017,,,No,No,Yes,Yes,,,,,,,,Yes,Yes,Casual,,,No,No,,,Yes,,,,,,,,,,,,,,,,,,,,,,,,,,,,1,0,1,0,0
219,Francesca's Pizza & Italian Kitchen,Restaurant,Pizza,Italian,,3.954545455,44,30,11,"207 Oswego St, Liverpool, NY 13088",207 Oswego St,Liverpool,NY,13088,43.1005597,-76.2005564,13154511200,francescaspizzaliverpool.com,No,Yes,Yes,Yes,No,,,Lunch,Private Lot,Yes,,Yes,Yes,Casual,Casual,Average,No,No,No,Yes,Yes,Yes,,,,,,,,,,,,,11:00 AM,9:00 PM,11:00 AM,9:00 PM,11:00 AM,9:00 PM,11:00 AM,9:00 PM,11:00 AM,10:00 PM,11:00 AM,10:00 PM,12:00 PM,8:00 PM,19,16,2,2,5
220,Gianni's Bronx Style Pizza,Restaurant,Pizza,,,3.982142857,56,10,0,"1428 Burnet Ave, Syracuse, NY 13206",1428 Burnet Ave,Syracuse,NY,13206,43.0550535,-76.1180822,13154257770,nygiannispizza.com,No,Yes,Yes,Yes,No,,,"Lunch, Dinner",Private Lot,Yes,No,Yes,No,Casual,Casual,Average,No,No,No,No,No,Yes,,,,,,,,,,,,,11:00 AM,9:00 PM,11:00 AM,9:00 PM,11:00 AM,9:00 PM,11:00 AM,9:00 PM,11:00 AM,10:00 PM,11:00 AM,10:00 PM,,,29,10,8,5,4
221,Casa Di Copani,Restaurant,Italian,,,3.678571429,28,30,11,"3414 Burnet Ave, Syracuse, NY 13206",3414 Burnet Ave,Syracuse,NY,13206,43.0612403,-76.0903943,13154631031,casadicopani.com,Yes,No,Yes,Yes,,,,Dinner,Private Lot,No,Yes,Yes,Yes,Casual,Casual,Average,Full Bar,No,No,Yes,Yes,Yes,,,,,,,,,,,,,,,11:30 AM,10:00 PM,11:30 AM,10:00 PM,11:30 AM,10:00 PM,11:00 AM,11:00 PM,11:00 AM,11:00 PM,3:00 PM,9:00 PM,8,10,5,3,2
223,Mom's Diner,Restaurant,Diners,,,3.565217391,23,10,0,"501 Westcott St, Syracuse, NY 13210",501 Westcott St,Syracuse,NY,13210,43.0413826,-76.1190165,13154770141,,No,No,Yes,Yes,,,,"Breakfast, Brunch, Lunch",,Yes,Yes,Yes,Yes,Casual,Casual,Average,,No,,No,Yes,No,,,,,,,,,,,,,7:00 AM,3:00 PM,7:00 AM,3:00 PM,7:00 AM,3:00 PM,7:00 AM,3:00 PM,7:00 AM,3:00 PM,7:00 AM,3:00 PM,7:00 AM,3:00 PM,6,9,3,2,3
224,Fair Deli Mart,Restaurant,Delis,,,4.333333333,6,10,0,"757 State Fair Blvd, Syracuse, NY 13209",757 State Fair Blvd,Syracuse,NY,13209,43.085997,-76.237281,13154871783,,No,Yes,Yes,Yes,,,,,,Yes,No,Yes,Yes,Casual,,Quiet,Beer & Wine Only,Yes,Free,No,No,Yes,,,,,,,,,,,,,6:00 AM,10:00 PM,6:00 AM,10:00 PM,6:00 AM,10:00 PM,6:00 AM,10:00 PM,6:00 AM,10:00 PM,8:00 AM,7:30 PM,8:00 AM,7:00 PM,5,0,0,0,1
225,Empire Buffet,Restaurant,Chinese,Diners,Buffets,2.921052632,38,30,11,"3179 Erie Blvd E, Syracuse, NY 13214",3179 Erie Blvd E,Syracuse,NY,13214,43.050074,-76.071485,13152511888,empirebuffetdewitt.com,No,No,Yes,Yes,,,,"Lunch, Dinner",Private Lot,Yes,,Yes,Yes,Casual,Casual,Average,No,No,No,No,Yes,No,,,,,,,,,,,,,11:00 AM,9:30 PM,11:00 AM,9:30 PM,11:00 AM,9:30 PM,11:00 AM,9:30 PM,11:00 AM,10:00 PM,11:00 AM,10:00 PM,11:00 AM,9:30 PM,4,9,14,2,9
226,Dorian's Gourmet Pizza and Deli,Restaurant,Pizza,Delis,Sandwiches,2.88,50,10,0,"534 Westcott St, Syracuse, NY 13210",534 Westcott St,Syracuse,NY,13210,43.0408378,-76.119616,13154722697,doriansgourmetpizza.com,No,Yes,Yes,Yes,,,,"Lunch, Dinner",Private Lot,Yes,,Yes,Yes,Casual,Casual,Average,Beer & Wine Only,Yes,Free,Yes,No,Yes,,,,,,,,,,,,,11:00 AM,12:00 AM,11:00 AM,12:00 AM,11:00 AM,1:00 AM,11:00 AM,2:00 AM,11:00 AM,3:00 AM,11:00 AM,3:00 AM,11:00 AM,12:00 AM,10,16,1,4,19
227,Tokyo Seoul Japanese and Korean Restaurant,Restaurant,Sushi Bars,Japanese,Korean,3.842696629,89,30,11,"3180 Erie Blvd E, De Witt, NY 13214",3180 Erie Blvd E,De Witt,NY,13214,43.0528506,-76.0750888,13154492688,tokyoseoulsyracuse.com,Yes,No,Yes,Yes,No,,,Dinner,Private Lot,No,Yes,Yes,Yes,Casual,Casual,Average,Full Bar,No,No,No,Yes,Yes,,Yes,,,,,,,,,,,,,11:30 AM,2:30 PM,11:30 AM,2:30 PM,11:30 AM,2:30 PM,11:30 AM,11:00 PM,11:30 AM,11:00 PM,1:00 PM,9:00 PM,39,23,10,8,9
228,Great Fortune Chinese Restaurant,Restaurant,Chinese,Food,Local Flavor,4.333333333,6,60,31,"116 Kreischer Rd., Syracuse, NY 13212",116 Kreischer Rd.,Syracuse,NY,13212,43.12558746,-76.11522675,,,No,Yes,Yes,Yes,,,,,,Yes,,No,No,Casual,,Average,No,No,No,,No,No,,,,,,,,,,,,,,,,,,,,,,,,,,,4,1,0,1,0
229,Bull & Bear Roadhouse,Restaurant,Bars,American (Traditional),Barbeque,3.661016949,59,30,11,"6402 Collamer Rd, East Syracuse, NY 13057",6402 Collamer Rd,East Syracuse,NY,13057,43.098,-76.07812475,13154372855,bullandbearroadhouse.com,Yes,No,Yes,Yes,,,,"Lunch, Dinner, Late Night",Private Lot,Yes,Yes,Yes,Yes,Casual,Casual,Loud,Full Bar,Yes,Free,Yes,Yes,Yes,No,,No,No,Yes,"Thu, Fri, Sat",Outdoor Area / Patio Only,,,,,,11:30 AM,2:00 AM,11:30 AM,2:00 AM,11:30 AM,2:00 AM,11:30 AM,2:00 AM,11:30 AM,2:00 AM,11:30 AM,2:00 AM,12:00 PM,2:00 AM,16,21,11,8,3
230,Yum Yum Shack,Restaurant,Food Stands,Burgers,,4.5,2,,,"CNY Regional Market\n2100 Park Ave, Syracuse, NY 13208",CNY Regional Market\n2100 Park Ave,Syracuse,NY,13208,43.0735301,-76.1686079,13154640435,,No,,Yes,No,,,,,,,,,No,,,,,,,,,,,,,,,,,,,,,,,,,,,,,,,,,,,,1,1,0,0,0
231,Vietnamese Noodle House,Restaurant,Vietnamese,Soup,Noodles,4.233333333,90,10,0,"709 N Main St\nSte 3, North Syracuse, NY 13212",709 N Main St\nSte 3,North Syracuse,NY,13212,43.1441299,-76.128009,13153960766,vietnamesenoodlehouse.weebly.…,Yes,No,Yes,Yes,No,,No,"Lunch, Dinner",Private Lot,Yes,Yes,Yes,Yes,Casual,Casual,Quiet,No,No,Free,No,Yes,Yes,,,,,,,,,,,,,,,11:00 AM,9:00 PM,11:00 AM,9:00 PM,11:00 AM,9:00 PM,11:00 AM,10:00 PM,11:30 AM,10:00 PM,11:30 AM,9:30 PM,48,27,5,8,2
232,Shattuck's Paddy Wagon,Restaurant,American (Traditional),,,,0,,,"Salina St, Syracuse, NY 13208",Salina St,Syracuse,NY,13208,43.0489416,-76.15192886,,,,,,,,,,,,,,,,,,,,,,,,,,,,,,,,,,,,,,,,,,,,,,,,,,,0,0,0,0,0
233,Nikos Family Italian Restaurant and Deli,Restaurant,Italian,Delis,American (Traditional),3.8,15,10,0,"135 E Water St, Syracuse, NY 13202",135 E Water St,Syracuse,NY,13202,43.050699,-76.151016,13154757000,mynikos.com,No,Yes,Yes,Yes,,,,,Street,Yes,Yes,Yes,Yes,Casual,,Quiet,No,Yes,Free,Yes,No,Yes,,,,,,,,,,,,,10:30 AM,9:00 PM,10:30 AM,9:00 PM,10:30 AM,9:00 PM,10:30 AM,9:00 PM,10:30 AM,9:00 PM,,,,,7,3,1,3,1
234,Luigi's Restaurant,Restaurant,Pizza,Italian,Sandwiches,3.44,25,30,11,"1524 Valley Dr, Syracuse, NY 13207",1524 Valley Dr,Syracuse,NY,13207,43.002754,-76.15344,13154929997,luigisofsyracuse.com,Yes,No,Yes,Yes,,,,"Lunch, Dinner",Private Lot,No,,Yes,Yes,Casual,Casual,Average,Beer & Wine Only,No,No,No,Yes,Yes,,,,,,,,,,,,,11:00 AM,9:00 PM,11:00 AM,9:00 PM,11:00 AM,9:00 PM,11:00 AM,9:30 PM,11:00 AM,10:30 PM,12:00 PM,10:00 PM,12:00 PM,9:00 PM,6,8,3,7,1
235,Taste of Philadelphia,Restaurant,Sandwiches,,,3.166666667,12,10,0,"2533 James St, Syracuse, NY 13206",2533 James St,Syracuse,NY,13206,43.068772,-76.1109544,13154639422,,No,No,Yes,Yes,,,,,Street,,,Yes,Yes,Casual,,Average,No,No,No,No,No,,,,,,,,,,,,,,,,,,,,,,,,,,,,2,3,3,3,1
236,Morgan's of Syracuse,Restaurant,Seafood,American (Traditional),,3.35,20,30,11,"329 Fay Rd, Syracuse, NY 13219",329 Fay Rd,Syracuse,NY,13219,43.0423423,-76.1986264,13154682113,morgansofsyracuse.com,Yes,No,Yes,Yes,,,,Dinner,Private Lot,Yes,Yes,Yes,Yes,Casual,,Average,Full Bar,No,,Yes,Yes,,,,,,,,,,,,,,11:30 AM,9:00 PM,11:30 AM,9:00 PM,11:30 AM,9:00 PM,11:30 AM,9:00 PM,11:30 AM,9:00 PM,12:00 PM,9:00 PM,12:00 PM,8:00 PM,5,8,0,3,4
237,Boston Market,Restaurant,Sandwiches,Salad,,3.6,5,30,11,"9090 Destiny Usa Dr\nSte FC10, Syracuse, NY 13290",9090 Destiny Usa Dr\nSte FC10,Syracuse,NY,13290,43.07062796,-76.17417115,,bostonmarket.com,No,No,Yes,Yes,,,,,,,,Yes,Yes,Casual,,Average,No,Yes,Free,No,No,Yes,,,,,,,,,,,,,,,,,,,,,,,,,,,1,3,0,0,1
238,Cafe Kubal,Restaurant,Cafes,Breakfast & Brunch,Sandwiches,,0,,,"3521 James St, Syracuse, NY 13206",3521 James St,Syracuse,NY,13206,43.0692844,-76.0974947,13156058225,cafekubal.com,No,,,Yes,,,,,,,,,,,,,,,,,,,,,,,,,,,,,,,,,,,,,,,,,,,,,0,0,0,0,0
239,Rachel's Restaurant,Restaurant,American (New),Breakfast & Brunch,,2.8125,16,30,11,"801 University Ave, Syracuse, NY 13210",801 University Ave,Syracuse,NY,13210,43.041052,-76.133908,13154753000,sheratonsyracuse.com/syracuse…,Yes,,,Yes,,,,,,,,,Yes,,,,,No,,,,,,,,,,,,,,,,,6:30 AM,8:00 PM,6:30 AM,8:00 PM,6:30 AM,8:00 PM,6:30 AM,8:00 PM,6:30 AM,8:00 PM,7:00 AM,10:00 AM,7:00 AM,10:00 AM,1,4,4,5,2
240,Nick's Pizza,Restaurant,Pizza,Italian,,4.2,40,10,0,"6380 Thompson Rd, East Syracuse, NY 13057",6380 Thompson Rd,East Syracuse,NY,13057,43.07923774,-76.08866362,13154636425,,No,Yes,Yes,Yes,,,,"Lunch, Dinner, Late Night",Private Lot,Yes,No,Yes,Yes,Casual,Casual,Average,No,No,No,Yes,No,Yes,,,,,,,,,,,,,11:00 AM,10:00 PM,11:00 AM,10:00 PM,11:00 AM,10:00 PM,11:00 AM,10:00 PM,11:00 AM,11:00 PM,11:00 AM,11:00 PM,11:00 AM,9:00 PM,24,7,5,1,3
242,China Max,Restaurant,Chinese,Fast Food,,1.5,4,10,0,"1 Carousel Ctr, Syracuse, NY 13290",1 Carousel Ctr,Syracuse,NY,13290,43.06970978,-76.17319489,13154228638,,No,No,Yes,Yes,,,,,,,,Yes,No,Casual,,Loud,,,,,,,,,,,,,,,,,,,,,,,,,,,,,,,,,0,0,1,0,3
243,Little Italy Pizzeria,Restaurant,Pizza,,,,0,,,"857 N Salina St, Syracuse, NY 13208",857 N Salina St,Syracuse,NY,13208,43.0624244,-76.1546592,13154240550,,,,,,,,,,,,,,,,,,,,,,,,,,,,,,,,,,,,,,,,,,,,,,,,,,0,0,0,0,0
244,Carl's Kountry Kitchen,Restaurant,Breakfast & Brunch,,,4.714285714,7,10,0,"2300 Teall Ave, Syracuse, NY 13206",2300 Teall Ave,Syracuse,NY,13206,43.082169,-76.123313,13154634845,,No,No,Yes,No,,,,,,Yes,,Yes,No,Casual,,Average,No,No,No,No,Yes,,,,,,,,,,,,,,6:30 AM,2:30 PM,6:30 AM,2:30 PM,6:30 AM,2:30 PM,6:30 AM,2:30 PM,6:30 AM,2:30 PM,6:30 AM,1:00 PM,7:30 AM,1:00 PM,5,2,0,0,0
245,The Inn Complete,Restaurant,Cafes,Colleges & Universities,,4,6,10,0,"Skytop Rd\nSouth Campus Syracuse University, Syracuse, NY 13210",Skytop Rd\nSouth Campus Syracuse University,Syracuse,NY,13210,43.01280717,-76.11791722,13154431102,foodservices.syr.edu/inncompl…,Yes,No,Yes,Yes,,,,,,,Yes,,Yes,Casual,,,,,,,,,,,,,,,,,,,,,5:00 PM,10:00 PM,5:00 PM,10:00 PM,5:00 PM,10:00 PM,5:00 PM,12:00 AM,5:00 PM,12:00 AM,5:00 PM,12:00 AM,,,2,2,2,0,0
246,Welcome Inn,Restaurant,Barbeque,Ukrainian,,4.375,8,10,0,"501 Tully, Syracuse, NY 13204",501 Tully,Syracuse,NY,13204,43.044448,-76.16286,13154789489,,Yes,No,Yes,No,No,,,Lunch,Street,Yes,Yes,Yes,Yes,Casual,,Average,Beer & Wine Only,No,No,Yes,Yes,Yes,,,,,,,,,,,,,11:00 AM,2:00 PM,11:00 AM,2:00 PM,11:00 AM,2:00 PM,11:00 AM,2:00 PM,11:00 AM,8:00 PM,,,,,5,2,0,1,0
247,A La Mode Cafe & Catering,Restaurant,Ice Cream & Frozen Yogurt,Sandwiches,,3.259259259,27,10,0,"331 Nottingham Rd, Syracuse, NY 13210",331 Nottingham Rd,Syracuse,NY,13210,43.0280687,-76.1114447,13154466716,alamodecafeandcatering.com,No,Yes,Yes,Yes,,,,Lunch,Private Lot,Yes,Yes,Yes,Yes,Casual,Casual,Average,No,Yes,Free,No,No,Yes,,,,,,,,,,,,,10:00 AM,8:00 PM,10:00 AM,8:00 PM,10:00 AM,9:00 PM,10:00 AM,9:00 PM,10:00 AM,9:00 PM,10:00 AM,9:00 PM,11:00 AM,8:00 PM,7,8,3,3,6
249,Eagle Tavern,Restaurant,American (Traditional),Bars,,4.64,25,30,11,"7575 Buckley Rd, Liverpool, NY 13090",7575 Buckley Rd,Liverpool,NY,13090,43.1359964,-76.1707844,13154514447,eagletavernsyracuse.com,No,No,Yes,Yes,,,,Dinner,,Yes,,No,Yes,Casual,Casual,Average,Full Bar,Yes,No,Yes,Yes,,No,,,No,Yes,,Outdoor Area / Patio Only,,,,,,11:30 AM,2:00 AM,11:30 AM,2:00 AM,11:30 AM,2:00 AM,11:30 AM,2:00 AM,11:30 AM,2:00 AM,11:30 AM,2:00 AM,12:00 PM,2:00 AM,17,7,1,0,0
